~Version Information Block
VERS .                  2.0:  CWLS LOG ASCII STANDARD - VERSION 2.0
WRAP .                   NO:  One line per depth step
~Well Information Block
#MNEM.UNIT        Data Type   Information
#---------- ----------------  -----------
STRT .M          1892.35080:  START DEPTH
STOP .M          2875.48320:  STOP DEPTH
STEP .M             0.15240:  STEP
NULL .              -999.25:  NULL VALUE
COMP .              Equinor:  COMPANY
WELL .            NO 31/5-7:  WELL
FLD  .                  Eos:  FIELD
LOC  .     Norwegian North Sea:  LOCATION
PROV .              UNKNOWN:  PROVINCE
SRVC .              Equinor:  SERVICE COMPANY
DATE .                     :  DATE
API  .            NO 31/5-7:  API NUMBER
UWI  .            NO 31/5-7:  UNIQUE WELL ID
X    .             524299.7:  X OR EAST-WEST COORDINATE
Y    .            6715849.6:  Y OR NORTH-SOUTH COORDINATE
LATI .     60° 34' 35.14" N:  LATITUDE
LONG .      3° 26' 36.13" E:  LONGITUDE
~Curve Information Block
#MNEM.UNIT         API CODE   Curve Description
#---------- ----------------  -----------------
DEPTH.M                    :  
CARB_FLAG.NONE                 :  Carbonate cement flag, manually edited, 1 = cement
COAL_FLAG.NONE                 :  1=COAL
KLOGH.MD                   :  Horizontal permeability. Boosted in Johansen Fm. (if(KLOGH>400,KLOGH*2.5,KLOGH)
PHIT .V/V                  :  IFC(COAL_FLAG>0.5,0,PHIT)
SAND_FLAG.NONE                 :  Sand flag
VSH  .UNITLESS                 :  Volume of dry VSH
~Parameter Information Block
#MNEM.UNIT            Value   Description
#---------- ----------------  -----------
ACCUMULATE.          69544.84375:  Accumulated KTIMM
PROJECT.     TROLL@be-vlinapp01:  
SET  .             STAT_CPI:  
DATUM_ELEVATION.                  MSL:  Datum_elevation
DEPTH_BOTTOM.M              6245.5:  Downhole depth
DIRECTIONAL_SET.               SURVEY:  Preferred directional survey set
DRILLED_DEPTH.M                2585:  Total Depth - Driller
DRILL_MEAS_REF.                   KB:  Drilling Measured From (Name of Drilling Elevation Reference)
ELEV_MEAS_REF.M                  31:  Elevation of Measurement Reference
ELEV_PERM_DATUM.                  MSL:  Local Permanent Datum
FAULTS_SET.                     :  Preferred faults set
LOGGED_DEPTH.M      2584.899902344:  Total Depth - Logger
MEASUREMENT_REF.                   KB:  Measurement Reference
TVD_BOTTOM.M      6243.987912547:  True Vertical Depth at well bottom
TVD_MIN_REPEAT.M                    :  TVD repeat section tolerance
XOFFSET_BOTTOM.       524405.4148394:  Amount of E/W distance from KB at TD
YOFFSET_BOTTOM.       6715847.712282:  Amount of N/S distance from KB at TD
~Other Information Block
# 
~A       DEPTH      CARB_FLAG      COAL_FLAG          KLOGH           PHIT      SAND_FLAG            VSH 
# ...
    2021.43360      -999.2500      -999.2500        22.7129       0.262756         1.0000         0.3925
    2021.58600      -999.2500      -999.2500        24.7827       0.259760         1.0000         0.3595
    2021.73840      -999.2500      -999.2500        19.2018       0.256918         1.0000         0.3920
    2021.89080      -999.2500      -999.2500        31.1162       0.261139         1.0000         0.3241
    2022.04320      -999.2500      -999.2500        38.9136       0.266088         1.0000         0.3092
    2022.19560      -999.2500      -999.2500        30.5629       0.263162         1.0000         0.3387
    2022.34800      -999.2500      -999.2500        20.6594       0.249395         1.0000         0.3366
    2022.50040      -999.2500      -999.2500        11.7489       0.241209         1.0000         0.3980
    2022.65280      -999.2500      -999.2500        16.6363       0.236167         1.0000         0.2943
    2022.80520      -999.2500      -999.2500         8.6588       0.220891         1.0000         0.2338
    2022.95760      -999.2500      -999.2500         6.3717       0.183305         1.0000         0.1512
    2023.11000      -999.2500      -999.2500         2.0255       0.140761         1.0000         0.0577
    2023.26240      -999.2500      -999.2500         0.7426       0.108899         0.0000         0.0212
    2023.41480      -999.2500      -999.2500         0.1918       0.073586         0.0000         0.0408
    2023.56720      -999.2500      -999.2500         0.0767       0.046086         0.0000         0.1123
    2023.71960      -999.2500      -999.2500         0.0504       0.028844         0.0000         0.1582
    2023.87200      -999.2500      -999.2500         0.0738       0.036150         0.0000         0.1487
    2024.02440      -999.2500      -999.2500         0.1841       0.060140         0.0000         0.1458
    2024.17680      -999.2500      -999.2500         1.5084       0.118711         1.0000         0.1049
    2024.32920      -999.2500      -999.2500        19.1841       0.195207         1.0000         0.0514
    2024.48160      -999.2500      -999.2500       178.3044       0.266569         1.0000         0.0245
    2024.63400      -999.2500      -999.2500       462.0527       0.303129         1.0000         0.0465
    2024.78640      -999.2500      -999.2500       605.5098       0.319782         1.0000         0.0874
    2024.93880      -999.2500      -999.2500       662.8723       0.328648         1.0000         0.1193
    2025.09120      -999.2500      -999.2500       848.4487       0.334738         1.0000         0.1063
    2025.24360      -999.2500      -999.2500       909.9152       0.339339         1.0000         0.1185
    2025.39600      -999.2500      -999.2500       773.1553       0.339451         1.0000         0.1229
    2025.54840      -999.2500      -999.2500       574.1328       0.335995         1.0000         0.1632
    2025.70080      -999.2500      -999.2500       556.8400       0.332276         1.0000         0.1722
    2025.85320      -999.2500      -999.2500       583.3974       0.330760         1.0000         0.1551
    2026.00560      -999.2500      -999.2500       613.2934       0.328797         1.0000         0.1348
    2026.15800      -999.2500      -999.2500       505.7936       0.324066         1.0000         0.1451
    2026.31040      -999.2500      -999.2500       482.4830       0.319557         1.0000         0.1291
    2026.46280      -999.2500      -999.2500       371.3006       0.317582         1.0000         0.1676
    2026.61520      -999.2500      -999.2500       330.7978       0.313113         1.0000         0.1648
    2026.76760      -999.2500      -999.2500       264.1686       0.310871         1.0000         0.1949
    2026.92000      -999.2500      -999.2500       299.3083       0.309539         1.0000         0.1639
    2027.07240      -999.2500      -999.2500       371.3925       0.315408         1.0000         0.1556
    2027.22480      -999.2500      -999.2500       524.0181       0.316924         1.0000         0.0990
    2027.37720      -999.2500      -999.2500       643.7617       0.301909         1.0000         0.0050
    2027.52960      -999.2500      -999.2500       135.5156       0.258165         1.0000         0.0299
    2027.68200      -999.2500      -999.2500        14.1462       0.208113         1.0000         0.1802
    2027.83440      -999.2500      -999.2500         4.9783       0.198514         1.0000         0.2969
    2027.98680      -999.2500      -999.2500        19.2356       0.236010         1.0000         0.2762
    2028.13920      -999.2500      -999.2500       119.4527       0.282066         1.0000         0.1857
    2028.29160      -999.2500      -999.2500       228.4298       0.307434         1.0000         0.2033
    2028.44400      -999.2500      -999.2500       243.9404       0.312301         1.0000         0.2178
    2028.59640      -999.2500      -999.2500       225.1142       0.315922         1.0000         0.2394
    2028.74880      -999.2500      -999.2500       351.1168       0.319556         1.0000         0.1891
    2028.90120      -999.2500      -999.2500       389.7168       0.322653         1.0000         0.1865
    2029.05360      -999.2500      -999.2500       494.3886       0.324450         1.0000         0.1515
    2029.20600      -999.2500      -999.2500       419.5962       0.320226         1.0000         0.1591
    2029.35840      -999.2500      -999.2500       350.6916       0.316919         1.0000         0.1748
    2029.51080      -999.2500      -999.2500       284.1182       0.314692         1.0000         0.2022
    2029.66320      -999.2500      -999.2500       288.6032       0.315219         1.0000         0.2022
    2029.81560      -999.2500      -999.2500       230.4314       0.312758         1.0000         0.2311
    2029.96800      -999.2500      -999.2500       201.4879       0.306996         1.0000         0.2246
    2030.12040      -999.2500      -999.2500       248.0418       0.305726         1.0000         0.1783
    2030.27280      -999.2500      -999.2500       406.9490       0.308343         1.0000         0.0993
    2030.42520      -999.2500      -999.2500       467.7570       0.309127         1.0000         0.0773
    2030.57760      -999.2500      -999.2500       290.5901       0.299969         1.0000         0.1167
    2030.73000      -999.2500      -999.2500       199.2057       0.287486         1.0000         0.1190
    2030.88240      -999.2500      -999.2500       188.1681       0.288129         1.0000         0.1333
    2031.03480      -999.2500      -999.2500       315.9290       0.299675         1.0000         0.0993
    2031.18720      -999.2500      -999.2500       342.0729       0.305074         1.0000         0.1141
    2031.33960      -999.2500      -999.2500       223.0781       0.294714         1.0000         0.1376
    2031.49200      -999.2500      -999.2500        95.1443       0.270584         1.0000         0.1383
    2031.64440      -999.2500      -999.2500        65.0241       0.257492         1.0000         0.1648
    2031.79680      -999.2500      -999.2500        64.6984       0.251676         1.0000         0.1336
    2031.94920      -999.2500      -999.2500        69.0585       0.255068         1.0000         0.1401
    2032.10160      -999.2500      -999.2500        69.6120       0.254657         1.0000         0.1363
    2032.25400      -999.2500      -999.2500        69.8731       0.254086         1.0000         0.1324
    2032.40640      -999.2500      -999.2500        72.1523       0.254626         1.0000         0.1147
    2032.55880      -999.2500      -999.2500        78.8147       0.258837         1.0000         0.0838
    2032.71120      -999.2500      -999.2500        91.7834       0.264177         1.0000         0.1142
    2032.86360      -999.2500      -999.2500       121.7475       0.273849         1.0000         0.1356
    2033.01600      -999.2500      -999.2500       155.8019       0.283683         1.0000         0.1444
