~Version Information Block
VERS .                  2.0:  CWLS LOG ASCII STANDARD - VERSION 2.0
WRAP .                   NO:  One line per depth step
~Well Information Block
#MNEM.UNIT        Data Type   Information
#---------- ----------------  -----------
STRT .M          1892.35080:  START DEPTH
STOP .M          2875.48320:  STOP DEPTH
STEP .M             0.15240:  STEP
NULL .              -999.25:  NULL VALUE
COMP .              Equinor:  COMPANY
WELL .            NO 31/5-7:  WELL
FLD  .                  Eos:  FIELD
LOC  .     Norwegian North Sea:  LOCATION
PROV .              UNKNOWN:  PROVINCE
SRVC .              Equinor:  SERVICE COMPANY
DATE .                     :  DATE
API  .            NO 31/5-7:  API NUMBER
UWI  .            NO 31/5-7:  UNIQUE WELL ID
X    .             524299.7:  X OR EAST-WEST COORDINATE
Y    .            6715849.6:  Y OR NORTH-SOUTH COORDINATE
LATI .     60° 34' 35.14" N:  LATITUDE
LONG .      3° 26' 36.13" E:  LONGITUDE
~Curve Information Block
#MNEM.UNIT         API CODE   Curve Description
#---------- ----------------  -----------------
DEPTH.M                    :  
CARB_FLAG.NONE                 :  Carbonate cement flag, manually edited, 1 = cement
COAL_FLAG.NONE                 :  1=COAL
KLOGH.MD                   :  Horizontal permeability. Boosted in Johansen Fm. (if(KLOGH>400,KLOGH*2.5,KLOGH)
PHIT .V/V                  :  IFC(COAL_FLAG>0.5,0,PHIT)
SAND_FLAG.NONE                 :  Sand flag
VSH  .UNITLESS                 :  Volume of dry VSH
~Parameter Information Block
#MNEM.UNIT            Value   Description
#---------- ----------------  -----------
ACCUMULATE.          69544.84375:  Accumulated KTIMM
PROJECT.     TROLL@be-vlinapp01:  
SET  .             STAT_CPI:  
DATUM_ELEVATION.                  MSL:  Datum_elevation
DEPTH_BOTTOM.M              6245.5:  Downhole depth
DIRECTIONAL_SET.               SURVEY:  Preferred directional survey set
DRILLED_DEPTH.M                2585:  Total Depth - Driller
DRILL_MEAS_REF.                   KB:  Drilling Measured From (Name of Drilling Elevation Reference)
ELEV_MEAS_REF.M                  31:  Elevation of Measurement Reference
ELEV_PERM_DATUM.                  MSL:  Local Permanent Datum
FAULTS_SET.                     :  Preferred faults set
LOGGED_DEPTH.M      2584.899902344:  Total Depth - Logger
MEASUREMENT_REF.                   KB:  Measurement Reference
TVD_BOTTOM.M      6243.987912547:  True Vertical Depth at well bottom
TVD_MIN_REPEAT.M                    :  TVD repeat section tolerance
XOFFSET_BOTTOM.       524405.4148394:  Amount of E/W distance from KB at TD
YOFFSET_BOTTOM.       6715847.712282:  Amount of N/S distance from KB at TD
~Other Information Block
# 
~A       DEPTH      CARB_FLAG      COAL_FLAG          KLOGH           PHIT      SAND_FLAG            VSH 
# ...
    2197.45560      -999.2500      -999.2500       143.6723       0.304037         1.0000         0.2721
    2197.60800      -999.2500      -999.2500        50.0984       0.276206         1.0000         0.2735
    2197.76040      -999.2500      -999.2500        21.0541       0.254922         1.0000         0.2706
    2197.91280      -999.2500      -999.2500        32.1387       0.256659         1.0000         0.2711
    2198.06520      -999.2500      -999.2500        71.9787       0.273710         1.0000         0.2352
    2198.21760      -999.2500      -999.2500        92.7798       0.282449         1.0000         0.2355
    2198.37000      -999.2500      -999.2500        42.3244       0.271813         1.0000         0.3107
    2198.52240      -999.2500      -999.2500        18.0181       0.251359         1.0000         0.3733
    2198.67480      -999.2500      -999.2500         8.3927       0.231754         0.0000         0.4093
    2198.82720      -999.2500      -999.2500         4.1828       0.217623         0.0000         0.4628
    2198.97960      -999.2500      -999.2500         1.6178       0.201646         0.0000         0.5539
    2199.13200      -999.2500      -999.2500         1.0977       0.193771         0.0000         0.5729
    2199.28440      -999.2500      -999.2500         1.1881       0.191903         0.0000         0.5426
    2199.43680      -999.2500      -999.2500         1.4999       0.197886         0.0000         0.4490
    2199.58920      -999.2500      -999.2500         1.4194       0.197218         0.0000         0.4527
    2199.74160      -999.2500      -999.2500         1.3194       0.190333         0.0000         0.4450
    2199.89400      -999.2500      -999.2500         0.8538       0.178315         0.0000         0.4605
    2200.04640      -999.2500      -999.2500         0.8777       0.176884         0.0000         0.4768
    2200.19880      -999.2500      -999.2500         0.8854       0.181330         0.0000         0.4947
    2200.35120      -999.2500      -999.2500         1.0249       0.181892         0.0000         0.4754
    2200.50360      -999.2500      -999.2500         0.6189       0.172474         0.0000         0.4877
    2200.65600      -999.2500      -999.2500         0.8589       0.177880         0.0000         0.5271
    2200.80840      -999.2500      -999.2500         4.9292       0.225946         0.0000         0.4777
    2200.96080      -999.2500      -999.2500        76.6833       0.285776         1.0000         0.2898
    2201.11320      -999.2500      -999.2500       437.8243       0.324325         1.0000         0.1738
    2201.26560      -999.2500      -999.2500       492.8080       0.324928         1.0000         0.1547
    2201.41800      -999.2500      -999.2500       368.5997       0.319366         1.0000         0.1789
    2201.57040      -999.2500      -999.2500       298.6002       0.316233         1.0000         0.2013
    2201.72280      -999.2500      -999.2500       190.9930       0.302063         1.0000         0.2075
    2201.87520      -999.2500      -999.2500       117.9011       0.286098         1.0000         0.2104
    2202.02760      -999.2500      -999.2500       158.1522       0.290095         1.0000         0.1770
    2202.18000      -999.2500      -999.2500       354.0666       0.316389         1.0000         0.1700
    2202.33240      -999.2500      -999.2500       650.4507       0.337878         1.0000         0.1738
    2202.48480      -999.2500      -999.2500       509.5194       0.334380         1.0000         0.2006
    2202.63720      -999.2500      -999.2500       283.2919       0.315630         1.0000         0.2079
    2202.78960      -999.2500      -999.2500       114.7639       0.296110         1.0000         0.2708
    2202.94200      -999.2500      -999.2500        81.3161       0.284456         1.0000         0.2715
    2203.09440      -999.2500      -999.2500        61.4401       0.277341         1.0000         0.2851
    2203.24680      -999.2500      -999.2500        63.5815       0.276446         1.0000         0.2737
    2203.39920      -999.2500      -999.2500        56.1445       0.276141         1.0000         0.2955
    2203.55160      -999.2500      -999.2500        64.6181       0.277782         1.0000         0.2780
    2203.70400      -999.2500      -999.2500        53.3929       0.270599         1.0000         0.2744
    2203.85640      -999.2500      -999.2500        23.1627       0.251681         1.0000         0.3276
    2204.00880      -999.2500      -999.2500         7.4977       0.224509         1.0000         0.3469
    2204.16120      -999.2500      -999.2500         4.5412       0.209423         1.0000         0.3270
    2204.31360      -999.2500      -999.2500         4.7135       0.207380         1.0000         0.3708
    2204.46600      -999.2500      -999.2500         3.8356       0.200929         1.0000         0.3052
    2204.61840      -999.2500      -999.2500         5.4326       0.200733         1.0000         0.2997
    2204.77080      -999.2500      -999.2500         4.1176       0.204306         1.0000         0.2684
    2204.92320      -999.2500      -999.2500         4.9528       0.217424         1.0000         0.3796
    2205.07560      -999.2500      -999.2500         2.5465       0.223006         1.0000         0.3778
    2205.22800      -999.2500      -999.2500         2.7787       0.215970         1.0000         0.3681
    2205.38040      -999.2500      -999.2500         1.6659       0.209004         1.0000         0.3615
    2205.53280      -999.2500      -999.2500         1.4240       0.205489         0.0000         0.4254
    2205.68520      -999.2500      -999.2500         3.4370       0.214182         0.0000         0.4129
    2205.83760      -999.2500      -999.2500         9.1565       0.224634         1.0000         0.3535
    2205.99000      -999.2500      -999.2500        13.4416       0.226959         1.0000         0.2939
    2206.14240      -999.2500      -999.2500        10.5449       0.221026         1.0000         0.3069
    2206.29480      -999.2500      -999.2500         5.1915       0.217276         0.0000         0.4200
    2206.44720      -999.2500      -999.2500         3.0624       0.211151         0.0000         0.4328
    2206.59960      -999.2500      -999.2500         1.5359       0.204650         0.0000         0.4415
    2206.75200      -999.2500      -999.2500         1.2604       0.197534         0.0000         0.4040
    2206.90440      -999.2500      -999.2500         1.7697       0.202171         1.0000         0.3973
    2207.05680      -999.2500      -999.2500         2.0209       0.208454         1.0000         0.3597
    2207.20920      -999.2500      -999.2500         1.7334       0.206543         1.0000         0.3830
    2207.36160      -999.2500      -999.2500         1.3168       0.201770         0.0000         0.4299
    2207.51400      -999.2500      -999.2500         2.5546       0.208940         0.0000         0.4796
    2207.66640      -999.2500      -999.2500         4.3750       0.221648         0.0000         0.4765
    2207.81880      -999.2500      -999.2500         4.7845       0.223788         0.0000         0.4520
    2207.97120      -999.2500      -999.2500         4.2258       0.216709         0.0000         0.4034
    2208.12360      -999.2500      -999.2500         4.0795       0.214282         0.0000         0.4226
    2208.27600      -999.2500      -999.2500         6.0184       0.218965         0.0000         0.4015
    2208.42840      -999.2500      -999.2500         5.7874       0.222769         0.0000         0.4299
    2208.58080      -999.2500      -999.2500         6.1786       0.226033         0.0000         0.4191
    2208.73320      -999.2500      -999.2500         4.0948       0.223071         1.0000         0.3969
    2208.88560      -999.2500      -999.2500         3.2680       0.218260         1.0000         0.3386
    2209.03800      -999.2500      -999.2500         2.4250       0.209627         1.0000         0.3492
