~Version Information Block
VERS .                  2.0:  CWLS LOG ASCII STANDARD - VERSION 2.0
WRAP .                   NO:  One line per depth step
~Well Information Block
#MNEM.UNIT        Data Type   Information
#---------- ----------------  -----------
STRT .M          1892.35080:  START DEPTH
STOP .M          2875.48320:  STOP DEPTH
STEP .M             0.15240:  STEP
NULL .              -999.25:  NULL VALUE
COMP .              Equinor:  COMPANY
WELL .            NO 31/5-7:  WELL
FLD  .                  Eos:  FIELD
LOC  .     Norwegian North Sea:  LOCATION
PROV .              UNKNOWN:  PROVINCE
SRVC .              Equinor:  SERVICE COMPANY
DATE .                     :  DATE
API  .            NO 31/5-7:  API NUMBER
UWI  .            NO 31/5-7:  UNIQUE WELL ID
X    .             524299.7:  X OR EAST-WEST COORDINATE
Y    .            6715849.6:  Y OR NORTH-SOUTH COORDINATE
LATI .     60° 34' 35.14" N:  LATITUDE
LONG .      3° 26' 36.13" E:  LONGITUDE
~Curve Information Block
#MNEM.UNIT         API CODE   Curve Description
#---------- ----------------  -----------------
DEPTH.M                    :  
CARB_FLAG.NONE                 :  Carbonate cement flag, manually edited, 1 = cement
COAL_FLAG.NONE                 :  1=COAL
KLOGH.MD                   :  Horizontal permeability. Boosted in Johansen Fm. (if(KLOGH>400,KLOGH*2.5,KLOGH)
PHIT .V/V                  :  IFC(COAL_FLAG>0.5,0,PHIT)
SAND_FLAG.NONE                 :  Sand flag
VSH  .UNITLESS                 :  Volume of dry VSH
~Parameter Information Block
#MNEM.UNIT            Value   Description
#---------- ----------------  -----------
ACCUMULATE.          69544.84375:  Accumulated KTIMM
PROJECT.     TROLL@be-vlinapp01:  
SET  .             STAT_CPI:  
DATUM_ELEVATION.                  MSL:  Datum_elevation
DEPTH_BOTTOM.M              6245.5:  Downhole depth
DIRECTIONAL_SET.               SURVEY:  Preferred directional survey set
DRILLED_DEPTH.M                2585:  Total Depth - Driller
DRILL_MEAS_REF.                   KB:  Drilling Measured From (Name of Drilling Elevation Reference)
ELEV_MEAS_REF.M                  31:  Elevation of Measurement Reference
ELEV_PERM_DATUM.                  MSL:  Local Permanent Datum
FAULTS_SET.                     :  Preferred faults set
LOGGED_DEPTH.M      2584.899902344:  Total Depth - Logger
MEASUREMENT_REF.                   KB:  Measurement Reference
TVD_BOTTOM.M      6243.987912547:  True Vertical Depth at well bottom
TVD_MIN_REPEAT.M                    :  TVD repeat section tolerance
XOFFSET_BOTTOM.       524405.4148394:  Amount of E/W distance from KB at TD
YOFFSET_BOTTOM.       6715847.712282:  Amount of N/S distance from KB at TD
~Other Information Block
# 
~A       DEPTH      CARB_FLAG      COAL_FLAG          KLOGH           PHIT      SAND_FLAG            VSH 
# ...
    2080.10760      -999.2500      -999.2500         0.0340       0.026875         0.0000         0.2235
    2080.26000      -999.2500      -999.2500         0.0806       0.054361         0.0000         0.2403
    2080.41240      -999.2500      -999.2500         0.5142       0.119079         0.0000         0.2272
    2080.56480      -999.2500      -999.2500         3.0107       0.194504         1.0000         0.2894
    2080.71720      -999.2500      -999.2500        21.4328       0.253057         1.0000         0.2720
    2080.86960      -999.2500      -999.2500        81.7317       0.289902         1.0000         0.3006
    2081.02200      -999.2500      -999.2500       151.1712       0.305580         1.0000         0.2710
    2081.17440      -999.2500      -999.2500       140.3482       0.308341         1.0000         0.3003
    2081.32680      -999.2500      -999.2500        93.1642       0.304224         1.0000         0.3550
    2081.47920      -999.2500      -999.2500       103.3417       0.299966         1.0000         0.3119
    2081.63160      -999.2500      -999.2500        90.0942       0.298915         1.0000         0.3320
    2081.78400      -999.2500      -999.2500       130.5121       0.303858         1.0000         0.2893
    2081.93640      -999.2500      -999.2500       123.0751       0.309379         1.0000         0.3308
    2082.08880      -999.2500      -999.2500       122.6187       0.310429         1.0000         0.3373
    2082.24120      -999.2500      -999.2500        96.6844       0.306165         1.0000         0.3587
    2082.39360      -999.2500      -999.2500        87.2481       0.301806         1.0000         0.3540
    2082.54600      -999.2500      -999.2500        85.0183       0.298497         1.0000         0.3406
    2082.69840      -999.2500      -999.2500        89.1760       0.294191         1.0000         0.3078
    2082.85080      -999.2500      -999.2500        74.6569       0.293373         1.0000         0.3369
    2083.00320      -999.2500      -999.2500       116.8397       0.296135         1.0000         0.2675
    2083.15560      -999.2500      -999.2500        88.2920       0.297185         1.0000         0.3262
    2083.30800      -999.2500      -999.2500       111.9647       0.297857         1.0000         0.2851
    2083.46040      -999.2500      -999.2500       102.6609       0.294801         1.0000         0.2846
    2083.61280      -999.2500      -999.2500       111.5442       0.295050         1.0000         0.2703
    2083.76520      -999.2500      -999.2500        86.6912       0.293083         1.0000         0.3070
    2083.91760      -999.2500      -999.2500        54.0131       0.290220         1.0000         0.3806
    2084.07000      -999.2500      -999.2500        59.2197       0.285165         1.0000         0.3353
    2084.22240      -999.2500      -999.2500        48.3863       0.278604         1.0000         0.3372
    2084.37480      -999.2500      -999.2500        44.3804       0.274360         1.0000         0.3301
    2084.52720      -999.2500      -999.2500        32.4409       0.270402         1.0000         0.3674
    2084.67960      -999.2500      -999.2500        28.2682       0.263622         1.0000         0.3560
    2084.83200      -999.2500      -999.2500        17.4987       0.248949         1.0000         0.3655
    2084.98440      -999.2500      -999.2500         5.6580       0.219436         1.0000         0.3576
    2085.13680      -999.2500      -999.2500         0.7139       0.168772         0.0000         0.2776
    2085.28920      -999.2500      -999.2500         0.1119       0.112554         0.0000         0.2453
    2085.44160      -999.2500      -999.2500         0.0401       0.066067         0.0000         0.2384
    2085.59400      -999.2500      -999.2500         0.0450       0.050728         0.0000         0.2302
    2085.74640      -999.2500      -999.2500         0.0647       0.053922         0.0000         0.2868
    2085.89880      -999.2500      -999.2500         0.1078       0.070845         0.0000         0.3431
    2086.05120      -999.2500      -999.2500         0.1739       0.092777         0.0000         0.3728
    2086.20360      -999.2500      -999.2500         0.3010       0.112948         0.0000         0.3602
    2086.35600      -999.2500      -999.2500         0.5635       0.135474         0.0000         0.3595
    2086.50840      -999.2500      -999.2500         1.3741       0.170639         0.0000         0.4135
    2086.66080      -999.2500      -999.2500         2.3315       0.208880         0.0000         0.4599
    2086.81320      -999.2500      -999.2500         6.1977       0.241027         0.0000         0.4939
    2086.96560      -999.2500      -999.2500        12.8855       0.252621         0.0000         0.4436
    2087.11800      -999.2500      -999.2500        23.6874       0.258758         1.0000         0.3625
    2087.27040      -999.2500      -999.2500        26.8081       0.264045         1.0000         0.3683
    2087.42280      -999.2500      -999.2500        29.3484       0.267807         1.0000         0.3720
    2087.57520      -999.2500      -999.2500        29.8044       0.268221         1.0000         0.3714
    2087.72760      -999.2500      -999.2500        25.2749       0.265359         1.0000         0.3867
    2087.88000      -999.2500      -999.2500        14.0795       0.261998         0.0000         0.4786
    2088.03240      -999.2500      -999.2500        10.7688       0.258699         0.0000         0.5012
    2088.18480      -999.2500      -999.2500        15.1669       0.260303         0.0000         0.4552
    2088.33720      -999.2500      -999.2500        31.7822       0.263532         1.0000         0.3333
    2088.48960      -999.2500      -999.2500        35.8891       0.269082         1.0000         0.3410
    2088.64200      -999.2500      -999.2500        33.9239       0.270753         1.0000         0.3609
    2088.79440      -999.2500      -999.2500        23.8827       0.273695         0.0000         0.4313
    2088.94680      -999.2500      -999.2500        32.5111       0.273221         1.0000         0.3826
    2089.09920      -999.2500      -999.2500        22.1300       0.263858         0.0000         0.4035
    2089.25160      -999.2500      -999.2500        12.1209       0.248267         0.0000         0.4311
    2089.40400      -999.2500      -999.2500         7.3822       0.236271         0.0000         0.4585
    2089.55640      -999.2500      -999.2500         4.1018       0.227236         0.0000         0.4627
    2089.70880      -999.2500      -999.2500         3.1427       0.217119         0.0000         0.4977
    2089.86120      -999.2500      -999.2500         1.6829       0.203381         0.0000         0.4906
    2090.01360      -999.2500      -999.2500         1.1880       0.196208         0.0000         0.4793
    2090.16600      -999.2500      -999.2500         1.0883       0.193421         0.0000         0.4638
    2090.31840      -999.2500      -999.2500         1.3230       0.198113         0.0000         0.5201
    2090.47080      -999.2500      -999.2500         2.1388       0.200917         0.0000         0.4972
    2090.62320      -999.2500      -999.2500         1.5094       0.198204         0.0000         0.5223
    2090.77560      -999.2500      -999.2500         1.2074       0.191455         0.0000         0.4692
    2090.92800      -999.2500      -999.2500         0.9980       0.187579         0.0000         0.4501
    2091.08040      -999.2500      -999.2500         1.4462       0.194099         0.0000         0.4433
    2091.23280      -999.2500      -999.2500         2.1187       0.199058         0.0000         0.4585
    2091.38520      -999.2500      -999.2500         1.6071       0.202438         0.0000         0.4740
    2091.53760      -999.2500      -999.2500         1.1967       0.197960         0.0000         0.4535
    2091.69000      -999.2500      -999.2500         1.0081       0.196951         0.0000         0.4470
