~Version Information Block
VERS .                  2.0:  CWLS LOG ASCII STANDARD - VERSION 2.0
WRAP .                   NO:  One line per depth step
~Well Information Block
#MNEM.UNIT        Data Type   Information
#---------- ----------------  -----------
STRT .M          1892.35080:  START DEPTH
STOP .M          2875.48320:  STOP DEPTH
STEP .M             0.15240:  STEP
NULL .              -999.25:  NULL VALUE
COMP .              Equinor:  COMPANY
WELL .            NO 31/5-7:  WELL
FLD  .                  Eos:  FIELD
LOC  .     Norwegian North Sea:  LOCATION
PROV .              UNKNOWN:  PROVINCE
SRVC .              Equinor:  SERVICE COMPANY
DATE .                     :  DATE
API  .            NO 31/5-7:  API NUMBER
UWI  .            NO 31/5-7:  UNIQUE WELL ID
X    .             524299.7:  X OR EAST-WEST COORDINATE
Y    .            6715849.6:  Y OR NORTH-SOUTH COORDINATE
LATI .     60° 34' 35.14" N:  LATITUDE
LONG .      3° 26' 36.13" E:  LONGITUDE
~Curve Information Block
#MNEM.UNIT         API CODE   Curve Description
#---------- ----------------  -----------------
DEPTH.M                    :  
CARB_FLAG.NONE                 :  Carbonate cement flag, manually edited, 1 = cement
COAL_FLAG.NONE                 :  1=COAL
KLOGH.MD                   :  Horizontal permeability. Boosted in Johansen Fm. (if(KLOGH>400,KLOGH*2.5,KLOGH)
PHIT .V/V                  :  IFC(COAL_FLAG>0.5,0,PHIT)
SAND_FLAG.NONE                 :  Sand flag
VSH  .UNITLESS                 :  Volume of dry VSH
~Parameter Information Block
#MNEM.UNIT            Value   Description
#---------- ----------------  -----------
ACCUMULATE.          69544.84375:  Accumulated KTIMM
PROJECT.     TROLL@be-vlinapp01:  
SET  .             STAT_CPI:  
DATUM_ELEVATION.                  MSL:  Datum_elevation
DEPTH_BOTTOM.M              6245.5:  Downhole depth
DIRECTIONAL_SET.               SURVEY:  Preferred directional survey set
DRILLED_DEPTH.M                2585:  Total Depth - Driller
DRILL_MEAS_REF.                   KB:  Drilling Measured From (Name of Drilling Elevation Reference)
ELEV_MEAS_REF.M                  31:  Elevation of Measurement Reference
ELEV_PERM_DATUM.                  MSL:  Local Permanent Datum
FAULTS_SET.                     :  Preferred faults set
LOGGED_DEPTH.M      2584.899902344:  Total Depth - Logger
MEASUREMENT_REF.                   KB:  Measurement Reference
TVD_BOTTOM.M      6243.987912547:  True Vertical Depth at well bottom
TVD_MIN_REPEAT.M                    :  TVD repeat section tolerance
XOFFSET_BOTTOM.       524405.4148394:  Amount of E/W distance from KB at TD
YOFFSET_BOTTOM.       6715847.712282:  Amount of N/S distance from KB at TD
~Other Information Block
# 
~A       DEPTH      CARB_FLAG      COAL_FLAG          KLOGH           PHIT      SAND_FLAG            VSH 
# ...
    2479.09080      -999.2500      -999.2500         0.0457       0.095397         0.0000         0.6124
    2479.24320      -999.2500      -999.2500         0.0365       0.093560         0.0000         0.6435
    2479.39560      -999.2500      -999.2500         0.0423       0.097247         0.0000         0.6417
    2479.54800      -999.2500      -999.2500         0.0442       0.100289         0.0000         0.6214
    2479.70040      -999.2500      -999.2500         0.0541       0.102906         0.0000         0.6217
    2479.85280      -999.2500      -999.2500         0.0477       0.101195         0.0000         0.6509
    2480.00520      -999.2500      -999.2500         0.0472       0.097975         0.0000         0.6489
    2480.15760      -999.2500      -999.2500         0.0265       0.094023         0.0000         0.6223
    2480.31000      -999.2500      -999.2500         0.0261       0.087978         0.0000         0.6498
    2480.46240      -999.2500      -999.2500         0.0204       0.084441         0.0000         0.6856
    2480.61480      -999.2500      -999.2500         0.0195       0.079371         0.0000         0.7109
    2480.76720      -999.2500      -999.2500         0.0127       0.084005         0.0000         0.7027
    2480.91960      -999.2500      -999.2500         0.0153       0.092283         0.0000         0.7234
    2481.07200      -999.2500      -999.2500         0.0187       0.095653         0.0000         0.7185
    2481.22440      -999.2500      -999.2500         0.0170       0.086721         0.0000         0.7126
    2481.37680      -999.2500      -999.2500         0.0130       0.073330         0.0000         0.6974
    2481.52920      -999.2500      -999.2500         0.0088       0.064690         0.0000         0.7752
    2481.68160      -999.2500      -999.2500         0.0076       0.063326         0.0000         0.8011
    2481.83400      -999.2500      -999.2500         0.0064       0.065108         0.0000         0.7779
    2481.98640      -999.2500      -999.2500         0.0089       0.069156         0.0000         0.7106
    2482.13880      -999.2500      -999.2500         0.0131       0.072467         0.0000         0.6502
    2482.29120      -999.2500      -999.2500         0.0143       0.071020         0.0000         0.6397
    2482.44360      -999.2500      -999.2500         0.0098       0.070400         0.0000         0.6490
    2482.59600      -999.2500      -999.2500         0.0078       0.071937         0.0000         0.6490
    2482.74840      -999.2500      -999.2500         0.0129       0.081742         0.0000         0.7128
    2482.90080      -999.2500      -999.2500         0.0201       0.090027         0.0000         0.6789
    2483.05320      -999.2500      -999.2500         0.0259       0.095590         0.0000         0.7490
    2483.20560      -999.2500      -999.2500         0.0256       0.094517         0.0000         0.7456
    2483.35800      -999.2500      -999.2500         0.0197       0.088761         0.0000         0.7625
    2483.51040      -999.2500      -999.2500         0.0189       0.082822         0.0000         0.7376
    2483.66280      -999.2500      -999.2500         0.0122       0.075824         0.0000         0.7822
    2483.81520      -999.2500      -999.2500         0.0136       0.076895         0.0000         0.7678
    2483.96760      -999.2500      -999.2500         0.0144       0.082571         0.0000         0.7881
    2484.12000      -999.2500      -999.2500         0.0179       0.092533         0.0000         0.7910
    2484.27240      -999.2500      -999.2500         0.0226       0.096378         0.0000         0.7710
    2484.42480      -999.2500      -999.2500         0.0225       0.094752         0.0000         0.7603
    2484.57720      -999.2500      -999.2500         0.0180       0.087908         0.0000         0.7756
    2484.72960      -999.2500      -999.2500         0.0114       0.085679         0.0000         0.8338
    2484.88200      -999.2500      -999.2500         0.0086       0.079751         0.0000         0.8538
    2485.03440      -999.2500      -999.2500         0.0107       0.077451         0.0000         0.8010
    2485.18680      -999.2500      -999.2500         0.0115       0.079934         0.0000         0.8108
    2485.33920      -999.2500      -999.2500         0.0161       0.088450         0.0000         0.7999
    2485.49160      -999.2500      -999.2500         0.0148       0.097103         0.0000         0.7628
    2485.64400      -999.2500      -999.2500         0.0179       0.093031         0.0000         0.7214
    2485.79640      -999.2500      -999.2500         0.0188       0.088106         0.0000         0.7287
    2485.94880      -999.2500      -999.2500         0.0181       0.082652         0.0000         0.7449
    2486.10120      -999.2500      -999.2500         0.0184       0.084661         0.0000         0.7533
    2486.25360      -999.2500      -999.2500         0.0195       0.089601         0.0000         0.7698
    2486.40600      -999.2500      -999.2500         0.0224       0.092583         0.0000         0.7594
    2486.55840      -999.2500      -999.2500         0.0195       0.094938         0.0000         0.6900
    2486.71080      -999.2500      -999.2500         0.0202       0.096679         0.0000         0.7531
    2486.86320      -999.2500      -999.2500         0.0175       0.099786         0.0000         0.7456
    2487.01560      -999.2500      -999.2500         0.0199       0.098142         0.0000         0.8127
    2487.16800      -999.2500      -999.2500         0.0096       0.076770         0.0000         0.8335
    2487.32040      -999.2500      -999.2500         0.0029       0.045343         0.0000         0.8847
    2487.47280      -999.2500      -999.2500         0.0011       0.024700         0.0000         0.8020
    2487.62520      -999.2500      -999.2500         0.0024       0.034411         0.0000         0.7782
    2487.77760      -999.2500      -999.2500         0.0255       0.082852         0.0000         0.6819
    2487.93000      -999.2500      -999.2500         0.3444       0.137975         0.0000         0.4945
    2488.08240      -999.2500      -999.2500         1.4934       0.173075         0.0000         0.4113
    2488.23480      -999.2500      -999.2500         1.0779       0.161620         0.0000         0.4096
    2488.38720      -999.2500      -999.2500         0.1334       0.112071         0.0000         0.5305
    2488.53960      -999.2500      -999.2500         0.0284       0.074626         0.0000         0.6091
    2488.69200      -999.2500      -999.2500         0.0300       0.078177         0.0000         0.6248
    2488.84440      -999.2500      -999.2500         0.1989       0.125549         0.0000         0.5295
    2488.99680      -999.2500      -999.2500         1.4025       0.173600         0.0000         0.4260
    2489.14920      -999.2500      -999.2500         3.2212       0.195749         1.0000         0.3913
    2489.30160      -999.2500      -999.2500         3.4640       0.197201         1.0000         0.3856
    2489.45400      -999.2500      -999.2500         5.3629       0.202882         1.0000         0.3344
    2489.60640      -999.2500      -999.2500         7.4452       0.214255         1.0000         0.3353
    2489.75880      -999.2500      -999.2500         8.4994       0.221223         1.0000         0.3488
    2489.91120      -999.2500      -999.2500         4.5549       0.208860         1.0000         0.3983
    2490.06360      -999.2500      -999.2500         3.2625       0.196308         1.0000         0.3920
    2490.21600      -999.2500      -999.2500         3.4582       0.198276         1.0000         0.3918
    2490.36840      -999.2500      -999.2500         5.2809       0.204755         1.0000         0.3477
    2490.52080      -999.2500      -999.2500         5.5355       0.202826         1.0000         0.3281
    2490.67320      -999.2500      -999.2500         3.2502       0.183158         1.0000         0.3201
