~Version Information Block
VERS .                  2.0:  CWLS LOG ASCII STANDARD - VERSION 2.0
WRAP .                   NO:  One line per depth step
~Well Information Block
#MNEM.UNIT        Data Type   Information
#---------- ----------------  -----------
STRT .M          1892.35080:  START DEPTH
STOP .M          2875.48320:  STOP DEPTH
STEP .M             0.15240:  STEP
NULL .              -999.25:  NULL VALUE
COMP .              Equinor:  COMPANY
WELL .            NO 31/5-7:  WELL
FLD  .                  Eos:  FIELD
LOC  .     Norwegian North Sea:  LOCATION
PROV .              UNKNOWN:  PROVINCE
SRVC .              Equinor:  SERVICE COMPANY
DATE .                     :  DATE
API  .            NO 31/5-7:  API NUMBER
UWI  .            NO 31/5-7:  UNIQUE WELL ID
X    .             524299.7:  X OR EAST-WEST COORDINATE
Y    .            6715849.6:  Y OR NORTH-SOUTH COORDINATE
LATI .     60° 34' 35.14" N:  LATITUDE
LONG .      3° 26' 36.13" E:  LONGITUDE
~Curve Information Block
#MNEM.UNIT         API CODE   Curve Description
#---------- ----------------  -----------------
DEPTH.M                    :  
CARB_FLAG.NONE                 :  Carbonate cement flag, manually edited, 1 = cement
COAL_FLAG.NONE                 :  1=COAL
KLOGH.MD                   :  Horizontal permeability. Boosted in Johansen Fm. (if(KLOGH>400,KLOGH*2.5,KLOGH)
PHIT .V/V                  :  IFC(COAL_FLAG>0.5,0,PHIT)
SAND_FLAG.NONE                 :  Sand flag
VSH  .UNITLESS                 :  Volume of dry VSH
~Parameter Information Block
#MNEM.UNIT            Value   Description
#---------- ----------------  -----------
ACCUMULATE.          69544.84375:  Accumulated KTIMM
PROJECT.     TROLL@be-vlinapp01:  
SET  .             STAT_CPI:  
DATUM_ELEVATION.                  MSL:  Datum_elevation
DEPTH_BOTTOM.M              6245.5:  Downhole depth
DIRECTIONAL_SET.               SURVEY:  Preferred directional survey set
DRILLED_DEPTH.M                2585:  Total Depth - Driller
DRILL_MEAS_REF.                   KB:  Drilling Measured From (Name of Drilling Elevation Reference)
ELEV_MEAS_REF.M                  31:  Elevation of Measurement Reference
ELEV_PERM_DATUM.                  MSL:  Local Permanent Datum
FAULTS_SET.                     :  Preferred faults set
LOGGED_DEPTH.M      2584.899902344:  Total Depth - Logger
MEASUREMENT_REF.                   KB:  Measurement Reference
TVD_BOTTOM.M      6243.987912547:  True Vertical Depth at well bottom
TVD_MIN_REPEAT.M                    :  TVD repeat section tolerance
XOFFSET_BOTTOM.       524405.4148394:  Amount of E/W distance from KB at TD
YOFFSET_BOTTOM.       6715847.712282:  Amount of N/S distance from KB at TD
~Other Information Block
# 
~A       DEPTH      CARB_FLAG      COAL_FLAG          KLOGH           PHIT      SAND_FLAG            VSH 
# ...
    2807.66520         0.0000      -999.2500         9.6629       0.174586         1.0000         0.3013
    2807.81760         0.0000      -999.2500        14.0678       0.184163         1.0000         0.2883
    2807.97000         0.0000      -999.2500        16.8596       0.188699         1.0000         0.2819
    2808.12240         0.0000      -999.2500        14.9200       0.184152         1.0000         0.2839
    2808.27480         0.0000      -999.2500        12.1213       0.176948         1.0000         0.2881
    2808.42720         0.0000      -999.2500        11.4574       0.176097         1.0000         0.2910
    2808.57960         0.0000      -999.2500        11.3301       0.179140         1.0000         0.2966
    2808.73200         0.0000      -999.2500        10.9576       0.183525         1.0000         0.3059
    2808.88440         0.0000      -999.2500        12.5155       0.189645         1.0000         0.3055
    2809.03680         0.0000      -999.2500        21.9516       0.197955         1.0000         0.2767
    2809.18920         0.0000      -999.2500        64.4030       0.209124         1.0000         0.2142
    2809.34160         0.0000      -999.2500       127.4336       0.215582         1.0000         0.1736
    2809.49400         0.0000      -999.2500       100.6301       0.210389         1.0000         0.1830
    2809.64640         0.0000      -999.2500        25.1037       0.191376         1.0000         0.2565
    2809.79880         0.0000      -999.2500         5.6085       0.168402         1.0000         0.3321
    2809.95120         0.0000      -999.2500         2.6125       0.155236         1.0000         0.3683
    2810.10360         0.0000      -999.2500         2.3936       0.153208         1.0000         0.3716
    2810.25600         0.0000      -999.2500         2.0069       0.152846         1.0000         0.3842
    2810.40840         0.0000      -999.2500         7.1327       0.143874         1.0000         0.2761
    2810.56080         0.0000      -999.2500         8.2127       0.113343         1.0000         0.2181
    2810.71320         0.0000      -999.2500         8.9018       0.093970         1.0000         0.1820
    2810.86560         0.0000      -999.2500         5.6811       0.085217         1.0000         0.2017
    2811.01800         0.0000      -999.2500         8.2665       0.099754         1.0000         0.1965
    2811.17040         0.0000      -999.2500        11.1397       0.109129         1.0000         0.1889
    2811.32280         0.0000      -999.2500        12.1129       0.124199         1.0000         0.2061
    2811.47520         0.0000      -999.2500         5.3044       0.114679         1.0000         0.2526
    2811.62760         0.0000      -999.2500         2.6752       0.100156         1.0000         0.2809
    2811.78000         0.0000      -999.2500         1.6835       0.083268         1.0000         0.2890
    2811.93240         0.0000      -999.2500         2.1213       0.087435         1.0000         0.2783
    2812.08480         0.0000      -999.2500         3.6482       0.098860         1.0000         0.2558
    2812.23720         0.0000      -999.2500         7.8279       0.117952         1.0000         0.2288
    2812.38960         0.0000      -999.2500        14.6606       0.143788         1.0000         0.2224
    2812.54200         0.0000      -999.2500        13.7510       0.164955         1.0000         0.2601
    2812.69440         0.0000      -999.2500        10.3686       0.179571         1.0000         0.3038
    2812.84680         0.0000      -999.2500        11.5317       0.186110         1.0000         0.3061
    2812.99920         0.0000      -999.2500        17.7565       0.189282         1.0000         0.2790
    2813.15160         0.0000      -999.2500        18.0454       0.185497         1.0000         0.2719
    2813.30400         0.0000      -999.2500        16.2106       0.184372         1.0000         0.2781
    2813.45640         0.0000      -999.2500        24.5784       0.188063         1.0000         0.2530
    2813.60880         0.0000      -999.2500        26.3154       0.189654         1.0000         0.2504
    2813.76120         0.0000      -999.2500        43.3001       0.192800         1.0000         0.2183
    2813.91360         0.0000      -999.2500        43.7787       0.194026         1.0000         0.2194
    2814.06600         0.0000      -999.2500        33.6399       0.192741         1.0000         0.2369
    2814.21840         0.0000      -999.2500        19.6099       0.188396         1.0000         0.2702
    2814.37080         0.0000      -999.2500        15.1856       0.185578         1.0000         0.2848
    2814.52320         0.0000      -999.2500        21.3990       0.187926         1.0000         0.2630
    2814.67560         0.0000      -999.2500        33.0373       0.191049         1.0000         0.2356
    2814.82800         0.0000      -999.2500        38.5564       0.191713         1.0000         0.2252
    2814.98040         0.0000      -999.2500        37.8506       0.191862         1.0000         0.2268
    2815.13280         0.0000      -999.2500        28.6797       0.190382         1.0000         0.2451
    2815.28520         0.0000      -999.2500        20.6175       0.187405         1.0000         0.2650
    2815.43760         0.0000      -999.2500        12.5332       0.184096         1.0000         0.2968
    2815.59000         0.0000      -999.2500        12.4401       0.185814         1.0000         0.3000
    2815.74240         0.0000      -999.2500        22.6363       0.190324         1.0000         0.2626
    2815.89480         0.0000      -999.2500        27.9969       0.190828         1.0000         0.2476
    2816.04720         0.0000      -999.2500        17.0478       0.145356         1.0000         0.2137
    2816.19960         0.0000      -999.2500         4.4583       0.075990         1.0000         0.2054
    2816.35200         1.0000      -999.2500         0.5932       0.009753         0.0000         0.2521
    2816.50440         1.0000      -999.2500         0.3750      -0.007387         0.0000         0.2594
    2816.65680         1.0000      -999.2500         0.3770      -0.001808         0.0000         0.2677
    2816.80920         1.0000      -999.2500         0.3523       0.009091         0.0000         0.2897
    2816.96160         1.0000      -999.2500         0.9399       0.045629         0.0000         0.2737
    2817.11400         0.0000      -999.2500         2.9031       0.084741         1.0000         0.2508
    2817.26640         0.0000      -999.2500         8.2923       0.110454         1.0000         0.2129
    2817.41880         0.0000      -999.2500         3.8592       0.104372         1.0000         0.2602
    2817.57120         0.0000      -999.2500         2.0083       0.098296         1.0000         0.2993
    2817.72360         0.0000      -999.2500         5.3329       0.119353         1.0000         0.2595
    2817.87600         0.0000      -999.2500        12.8732       0.146259         1.0000         0.2359
    2818.02840         0.0000      -999.2500        17.8618       0.168986         1.0000         0.2470
    2818.18080         0.0000      -999.2500         9.9804       0.173279         1.0000         0.2969
    2818.33320         0.0000      -999.2500         9.9952       0.172705         1.0000         0.2959
    2818.48560      -999.2500      -999.2500         0.0770       0.165243         0.0000         0.3433
    2818.63800      -999.2500      -999.2500         0.1134       0.168456         0.0000         0.3399
    2818.79040      -999.2500      -999.2500         0.1366       0.168693         0.0000         0.3330
    2818.94280      -999.2500      -999.2500         0.0928       0.164835         0.0000         0.3340
    2819.09520      -999.2500      -999.2500         0.0398       0.160912         0.0000         0.3525
    2819.24760      -999.2500      -999.2500         0.0334       0.162263         0.0000         0.3652
