~Version Information Block
VERS .                  2.0:  CWLS LOG ASCII STANDARD - VERSION 2.0
WRAP .                   NO:  One line per depth step
~Well Information Block
#MNEM.UNIT        Data Type   Information
#---------- ----------------  -----------
STRT .M          1892.35080:  START DEPTH
STOP .M          2875.48320:  STOP DEPTH
STEP .M             0.15240:  STEP
NULL .              -999.25:  NULL VALUE
COMP .              Equinor:  COMPANY
WELL .            NO 31/5-7:  WELL
FLD  .                  Eos:  FIELD
LOC  .     Norwegian North Sea:  LOCATION
PROV .              UNKNOWN:  PROVINCE
SRVC .              Equinor:  SERVICE COMPANY
DATE .                     :  DATE
API  .            NO 31/5-7:  API NUMBER
UWI  .            NO 31/5-7:  UNIQUE WELL ID
X    .             524299.7:  X OR EAST-WEST COORDINATE
Y    .            6715849.6:  Y OR NORTH-SOUTH COORDINATE
LATI .     60° 34' 35.14" N:  LATITUDE
LONG .      3° 26' 36.13" E:  LONGITUDE
~Curve Information Block
#MNEM.UNIT         API CODE   Curve Description
#---------- ----------------  -----------------
DEPTH.M                    :  
CARB_FLAG.NONE                 :  Carbonate cement flag, manually edited, 1 = cement
COAL_FLAG.NONE                 :  1=COAL
KLOGH.MD                   :  Horizontal permeability. Boosted in Johansen Fm. (if(KLOGH>400,KLOGH*2.5,KLOGH)
PHIT .V/V                  :  IFC(COAL_FLAG>0.5,0,PHIT)
SAND_FLAG.NONE                 :  Sand flag
VSH  .UNITLESS                 :  Volume of dry VSH
~Parameter Information Block
#MNEM.UNIT            Value   Description
#---------- ----------------  -----------
ACCUMULATE.          69544.84375:  Accumulated KTIMM
PROJECT.     TROLL@be-vlinapp01:  
SET  .             STAT_CPI:  
DATUM_ELEVATION.                  MSL:  Datum_elevation
DEPTH_BOTTOM.M              6245.5:  Downhole depth
DIRECTIONAL_SET.               SURVEY:  Preferred directional survey set
DRILLED_DEPTH.M                2585:  Total Depth - Driller
DRILL_MEAS_REF.                   KB:  Drilling Measured From (Name of Drilling Elevation Reference)
ELEV_MEAS_REF.M                  31:  Elevation of Measurement Reference
ELEV_PERM_DATUM.                  MSL:  Local Permanent Datum
FAULTS_SET.                     :  Preferred faults set
LOGGED_DEPTH.M      2584.899902344:  Total Depth - Logger
MEASUREMENT_REF.                   KB:  Measurement Reference
TVD_BOTTOM.M      6243.987912547:  True Vertical Depth at well bottom
TVD_MIN_REPEAT.M                    :  TVD repeat section tolerance
XOFFSET_BOTTOM.       524405.4148394:  Amount of E/W distance from KB at TD
YOFFSET_BOTTOM.       6715847.712282:  Amount of N/S distance from KB at TD
~Other Information Block
# 
~A       DEPTH      CARB_FLAG      COAL_FLAG          KLOGH           PHIT      SAND_FLAG            VSH 
# ...
    2314.80360      -999.2500      -999.2500        10.0649       0.217357         1.0000         0.2351
    2314.95600      -999.2500      -999.2500         2.6489       0.179059         1.0000         0.2364
    2315.10840      -999.2500      -999.2500         0.7644       0.148393         0.0000         0.2018
    2315.26080      -999.2500      -999.2500         1.8972       0.168686         1.0000         0.1836
    2315.41320      -999.2500      -999.2500         7.8026       0.206658         1.0000         0.1560
    2315.56560      -999.2500      -999.2500        29.2753       0.240437         1.0000         0.1656
    2315.71800      -999.2500      -999.2500        34.7391       0.243510         1.0000         0.1851
    2315.87040      -999.2500      -999.2500        34.2482       0.240228         1.0000         0.1905
    2316.02280      -999.2500      -999.2500        25.5218       0.233749         1.0000         0.2103
    2316.17520      -999.2500      -999.2500        22.6508       0.233279         1.0000         0.2302
    2316.32760      -999.2500      -999.2500        21.4748       0.230345         1.0000         0.2241
    2316.48000      -999.2500      -999.2500        23.2788       0.227212         1.0000         0.1916
    2316.63240      -999.2500      -999.2500        17.2114       0.223593         1.0000         0.2286
    2316.78480      -999.2500      -999.2500        12.4333       0.222183         1.0000         0.2370
    2316.93720      -999.2500      -999.2500         9.3657       0.220654         1.0000         0.2330
    2317.08960      -999.2500      -999.2500         8.5923       0.215885         1.0000         0.2074
    2317.24200      -999.2500      -999.2500         9.7753       0.211199         1.0000         0.2115
    2317.39440      -999.2500      -999.2500         7.1838       0.200595         1.0000         0.2007
    2317.54680      -999.2500      -999.2500         6.6978       0.194662         1.0000         0.2143
    2317.69920      -999.2500      -999.2500         8.4733       0.198996         1.0000         0.2141
    2317.85160      -999.2500      -999.2500        15.8748       0.212390         1.0000         0.1820
    2318.00400      -999.2500      -999.2500        21.0597       0.220655         1.0000         0.1743
    2318.15640      -999.2500      -999.2500        20.8099       0.221206         1.0000         0.1796
    2318.30880      -999.2500      -999.2500        18.0741       0.219396         1.0000         0.1949
    2318.46120      -999.2500      -999.2500        17.9879       0.222999         1.0000         0.1701
    2318.61360      -999.2500      -999.2500        20.9389       0.228434         1.0000         0.1561
    2318.76600      -999.2500      -999.2500        30.5944       0.235002         1.0000         0.1830
    2318.91840      -999.2500      -999.2500        32.1138       0.238745         1.0000         0.1945
    2319.07080      -999.2500      -999.2500        31.1113       0.241166         1.0000         0.1968
    2319.22320      -999.2500      -999.2500        28.7483       0.241895         1.0000         0.1248
    2319.37560      -999.2500      -999.2500        27.0427       0.237276         1.0000         0.1132
    2319.52800      -999.2500      -999.2500        22.4282       0.232818         1.0000         0.1138
    2319.68040      -999.2500      -999.2500        20.5199       0.232447         1.0000         0.1818
    2319.83280      -999.2500      -999.2500        24.7178       0.237572         1.0000         0.1677
    2319.98520      -999.2500      -999.2500        29.7638       0.237954         1.0000         0.1523
    2320.13760      -999.2500      -999.2500        33.4727       0.237845         1.0000         0.1409
    2320.29000      -999.2500      -999.2500        29.8203       0.236406         1.0000         0.1410
    2320.44240      -999.2500      -999.2500        26.7823       0.235677         1.0000         0.1769
    2320.59480      -999.2500      -999.2500        17.9274       0.225414         1.0000         0.1493
    2320.74720      -999.2500      -999.2500        11.1303       0.206082         1.0000         0.2077
    2320.89960      -999.2500      -999.2500         5.5173       0.185115         1.0000         0.2145
    2321.05200      -999.2500      -999.2500         3.2473       0.178828         1.0000         0.1947
    2321.20440      -999.2500      -999.2500         4.3471       0.189979         1.0000         0.1716
    2321.35680      -999.2500      -999.2500         9.2960       0.210682         1.0000         0.1592
    2321.50920      -999.2500      -999.2500        18.2575       0.223293         1.0000         0.2158
    2321.66160      -999.2500      -999.2500        21.3923       0.229185         1.0000         0.2055
    2321.81400      -999.2500      -999.2500        17.6393       0.225512         1.0000         0.2346
    2321.96640      -999.2500      -999.2500        15.3006       0.220133         1.0000         0.2041
    2322.11880      -999.2500      -999.2500        14.2914       0.217915         1.0000         0.1988
    2322.27120      -999.2500      -999.2500        15.6453       0.224043         1.0000         0.1567
    2322.42360      -999.2500      -999.2500        23.3073       0.234634         1.0000         0.2134
    2322.57600      -999.2500      -999.2500        34.4735       0.241110         1.0000         0.1942
    2322.72840      -999.2500      -999.2500        39.8051       0.243258         1.0000         0.1789
    2322.88080      -999.2500      -999.2500        38.2607       0.242690         1.0000         0.1210
    2323.03320      -999.2500      -999.2500        29.4924       0.239320         1.0000         0.1203
    2323.18560      -999.2500      -999.2500        17.2576       0.228579         1.0000         0.1792
    2323.33800      -999.2500      -999.2500        15.7285       0.222368         1.0000         0.2389
    2323.49040      -999.2500      -999.2500        15.8754       0.221352         1.0000         0.2315
    2323.64280      -999.2500      -999.2500        20.6929       0.224681         1.0000         0.1998
    2323.79520      -999.2500      -999.2500        19.1504       0.226246         1.0000         0.1846
    2323.94760      -999.2500      -999.2500        18.0418       0.221292         1.0000         0.1714
    2324.10000      -999.2500      -999.2500        18.1255       0.219547         1.0000         0.1965
    2324.25240      -999.2500      -999.2500        16.0812       0.218670         1.0000         0.2143
    2324.40480      -999.2500      -999.2500        13.1811       0.219023         1.0000         0.2195
    2324.55720      -999.2500      -999.2500        12.9321       0.220671         1.0000         0.2134
    2324.70960      -999.2500      -999.2500        14.7583       0.222046         1.0000         0.2087
    2324.86200      -999.2500      -999.2500        18.6682       0.223239         1.0000         0.2113
    2325.01440      -999.2500      -999.2500        13.5178       0.216066         1.0000         0.2223
    2325.16680      -999.2500      -999.2500        10.6356       0.208743         1.0000         0.1927
    2325.31920      -999.2500      -999.2500        10.0059       0.206653         1.0000         0.2019
    2325.47160      -999.2500      -999.2500        13.7106       0.212992         1.0000         0.1629
    2325.62400      -999.2500      -999.2500        20.7611       0.220828         1.0000         0.1672
    2325.77640      -999.2500      -999.2500        22.8573       0.227072         1.0000         0.1470
    2325.92880      -999.2500      -999.2500        24.6413       0.229730         1.0000         0.1532
    2326.08120      -999.2500      -999.2500        18.4105       0.229405         1.0000         0.1292
    2326.23360      -999.2500      -999.2500        16.5287       0.225821         1.0000         0.0952
    2326.38600      -999.2500      -999.2500        19.0820       0.225119         1.0000         0.1188
