~Version Information Block
VERS .                  2.0:  CWLS LOG ASCII STANDARD - VERSION 2.0
WRAP .                   NO:  One line per depth step
~Well Information Block
#MNEM.UNIT        Data Type   Information
#---------- ----------------  -----------
STRT .M          1892.35080:  START DEPTH
STOP .M          2875.48320:  STOP DEPTH
STEP .M             0.15240:  STEP
NULL .              -999.25:  NULL VALUE
COMP .              Equinor:  COMPANY
WELL .            NO 31/5-7:  WELL
FLD  .                  Eos:  FIELD
LOC  .     Norwegian North Sea:  LOCATION
PROV .              UNKNOWN:  PROVINCE
SRVC .              Equinor:  SERVICE COMPANY
DATE .                     :  DATE
API  .            NO 31/5-7:  API NUMBER
UWI  .            NO 31/5-7:  UNIQUE WELL ID
X    .             524299.7:  X OR EAST-WEST COORDINATE
Y    .            6715849.6:  Y OR NORTH-SOUTH COORDINATE
LATI .     60° 34' 35.14" N:  LATITUDE
LONG .      3° 26' 36.13" E:  LONGITUDE
~Curve Information Block
#MNEM.UNIT         API CODE   Curve Description
#---------- ----------------  -----------------
DEPTH.M                    :  
CARB_FLAG.NONE                 :  Carbonate cement flag, manually edited, 1 = cement
COAL_FLAG.NONE                 :  1=COAL
KLOGH.MD                   :  Horizontal permeability. Boosted in Johansen Fm. (if(KLOGH>400,KLOGH*2.5,KLOGH)
PHIT .V/V                  :  IFC(COAL_FLAG>0.5,0,PHIT)
SAND_FLAG.NONE                 :  Sand flag
VSH  .UNITLESS                 :  Volume of dry VSH
~Parameter Information Block
#MNEM.UNIT            Value   Description
#---------- ----------------  -----------
ACCUMULATE.          69544.84375:  Accumulated KTIMM
PROJECT.     TROLL@be-vlinapp01:  
SET  .             STAT_CPI:  
DATUM_ELEVATION.                  MSL:  Datum_elevation
DEPTH_BOTTOM.M              6245.5:  Downhole depth
DIRECTIONAL_SET.               SURVEY:  Preferred directional survey set
DRILLED_DEPTH.M                2585:  Total Depth - Driller
DRILL_MEAS_REF.                   KB:  Drilling Measured From (Name of Drilling Elevation Reference)
ELEV_MEAS_REF.M                  31:  Elevation of Measurement Reference
ELEV_PERM_DATUM.                  MSL:  Local Permanent Datum
FAULTS_SET.                     :  Preferred faults set
LOGGED_DEPTH.M      2584.899902344:  Total Depth - Logger
MEASUREMENT_REF.                   KB:  Measurement Reference
TVD_BOTTOM.M      6243.987912547:  True Vertical Depth at well bottom
TVD_MIN_REPEAT.M                    :  TVD repeat section tolerance
XOFFSET_BOTTOM.       524405.4148394:  Amount of E/W distance from KB at TD
YOFFSET_BOTTOM.       6715847.712282:  Amount of N/S distance from KB at TD
~Other Information Block
# 
~A       DEPTH      CARB_FLAG      COAL_FLAG          KLOGH           PHIT      SAND_FLAG            VSH 
# ...
    2256.12960      -999.2500      -999.2500       277.5392       0.300597         1.0000         0.1288
    2256.28200      -999.2500      -999.2500       318.9549       0.302014         1.0000         0.1104
    2256.43440      -999.2500      -999.2500       355.7503       0.302043         1.0000         0.0899
    2256.58680      -999.2500      -999.2500       391.2729       0.303661         1.0000         0.0809
    2256.73920      -999.2500      -999.2500       349.3368       0.303634         1.0000         0.1021
    2256.89160      -999.2500      -999.2500       405.9467       0.304426         1.0000         0.0781
    2257.04400      -999.2500      -999.2500       330.7916       0.304152         1.0000         0.1153
    2257.19640      -999.2500      -999.2500       302.3307       0.302027         1.0000         0.1205
    2257.34880      -999.2500      -999.2500       218.3637       0.303857         1.0000         0.1900
    2257.50120      -999.2500      -999.2500       194.2509       0.305945         1.0000         0.1794
    2257.65360      -999.2500      -999.2500       226.1789       0.307239         1.0000         0.2041
    2257.80600      -999.2500      -999.2500       255.8758       0.304380         1.0000         0.1650
    2257.95840      -999.2500      -999.2500       213.0076       0.294512         1.0000         0.1452
    2258.11080      -999.2500      -999.2500        60.6695       0.260645         1.0000         0.1893
    2258.26320      -999.2500      -999.2500        13.8727       0.212489         1.0000         0.2080
    2258.41560      -999.2500      -999.2500         5.6850       0.179033         1.0000         0.1435
    2258.56800      -999.2500      -999.2500        15.8033       0.197387         1.0000         0.1000
    2258.72040      -999.2500      -999.2500        83.9501       0.240560         1.0000         0.0231
    2258.87280      -999.2500      -999.2500       189.5132       0.270652         1.0000         0.0355
    2259.02520      -999.2500      -999.2500       139.6921       0.275731         1.0000         0.1211
    2259.17760      -999.2500      -999.2500       102.5960       0.272530         1.0000         0.1617
    2259.33000      -999.2500      -999.2500       127.7347       0.269629         1.0000         0.1043
    2259.48240      -999.2500      -999.2500        80.7665       0.264610         1.0000         0.1632
    2259.63480      -999.2500      -999.2500        56.3718       0.256221         1.0000         0.1848
    2259.78720      -999.2500      -999.2500        43.1337       0.251788         1.0000         0.2017
    2259.93960      -999.2500      -999.2500        30.9178       0.236702         1.0000         0.1904
    2260.09200      -999.2500      -999.2500        22.7620       0.230876         1.0000         0.1626
    2260.24440      -999.2500      -999.2500        34.1576       0.246277         1.0000         0.1598
    2260.39680      -999.2500      -999.2500       120.1825       0.278789         1.0000         0.1631
    2260.54920      -999.2500      -999.2500       241.1972       0.304838         1.0000         0.1787
    2260.70160      -999.2500      -999.2500       312.7149       0.308325         1.0000         0.1489
    2260.85400      -999.2500      -999.2500       257.4185       0.306099         1.0000         0.1669
    2261.00640      -999.2500      -999.2500       289.0742       0.305315         1.0000         0.1472
    2261.15880      -999.2500      -999.2500       230.5660       0.305009         1.0000         0.1673
    2261.31120      -999.2500      -999.2500       245.4427       0.306100         1.0000         0.1824
    2261.46360      -999.2500      -999.2500       208.5466       0.307435         1.0000         0.2050
    2261.61600      -999.2500      -999.2500       171.9713       0.306848         1.0000         0.2537
    2261.76840      -999.2500      -999.2500       165.3802       0.305335         1.0000         0.2428
    2261.92080      -999.2500      -999.2500       140.2073       0.300579         1.0000         0.2576
    2262.07320      -999.2500      -999.2500       201.0016       0.298028         1.0000         0.1755
    2262.22560      -999.2500      -999.2500       157.3810       0.295689         1.0000         0.2088
    2262.37800      -999.2500      -999.2500       191.8862       0.297075         1.0000         0.1790
    2262.53040      -999.2500      -999.2500       147.1017       0.295402         1.0000         0.2200
    2262.68280      -999.2500      -999.2500       121.9624       0.288251         1.0000         0.2008
    2262.83520      -999.2500      -999.2500        76.0845       0.277097         1.0000         0.1991
    2262.98760      -999.2500      -999.2500        86.5701       0.275711         1.0000         0.1722
    2263.14000      -999.2500      -999.2500       170.3918       0.276677         1.0000         0.0888
    2263.29240      -999.2500      -999.2500       291.3419       0.282857         1.0000         0.0217
    2263.44480      -999.2500      -999.2500       347.6204       0.289710         1.0000         0.0262
    2263.59720      -999.2500      -999.2500       283.3672       0.294125         1.0000         0.0891
    2263.74960      -999.2500      -999.2500       181.4166       0.290296         1.0000         0.1522
    2263.90200      -999.2500      -999.2500        86.7202       0.280488         1.0000         0.1611
    2264.05440      -999.2500      -999.2500        80.4040       0.276143         1.0000         0.1603
    2264.20680      -999.2500      -999.2500       146.4944       0.281924         1.0000         0.1464
    2264.35920      -999.2500      -999.2500       275.3795       0.290509         1.0000         0.0746
    2264.51160      -999.2500      -999.2500       496.2697       0.302210         1.0000         0.0280
    2264.66400      -999.2500      -999.2500       461.9781       0.308735         1.0000         0.0775
    2264.81640      -999.2500      -999.2500       485.9741       0.315192         1.0000         0.0994
    2264.96880      -999.2500      -999.2500       405.5864       0.320597         1.0000         0.1019
    2265.12120      -999.2500      -999.2500       455.6432       0.324662         1.0000         0.1205
    2265.27360      -999.2500      -999.2500       519.8098       0.326640         1.0000         0.1222
    2265.42600      -999.2500      -999.2500       591.3237       0.328626         1.0000         0.1156
    2265.57840      -999.2500      -999.2500       717.5930       0.334043         1.0000         0.1315
    2265.73080      -999.2500      -999.2500       730.6995       0.333939         1.0000         0.1032
    2265.88320      -999.2500      -999.2500       275.4320       0.312929         1.0000         0.1041
    2266.03560      -999.2500      -999.2500        49.8388       0.263871         1.0000         0.1709
    2266.18800      -999.2500      -999.2500         7.1534       0.204796         1.0000         0.2392
    2266.34040      -999.2500      -999.2500         1.9775       0.153933         1.0000         0.2525
    2266.49280      -999.2500      -999.2500         0.5434       0.109060         0.0000         0.2316
    2266.64520      -999.2500      -999.2500         0.1269       0.063325         0.0000         0.2047
    2266.79760      -999.2500      -999.2500         0.0438       0.030672         0.0000         0.1256
    2266.95000      -999.2500      -999.2500         0.0461       0.030400         0.0000         0.0561
    2267.10240      -999.2500      -999.2500         0.1266       0.059124         0.0000         0.0815
    2267.25480      -999.2500      -999.2500         0.3696       0.094678         0.0000         0.1702
    2267.40720      -999.2500      -999.2500         0.9530       0.128509         0.0000         0.2500
    2267.55960      -999.2500      -999.2500         1.5350       0.154460         1.0000         0.3033
    2267.71200      -999.2500      -999.2500         1.7172       0.169587         1.0000         0.3656
