~Version Information Block
VERS .                  2.0:  CWLS LOG ASCII STANDARD - VERSION 2.0
WRAP .                   NO:  One line per depth step
~Well Information Block
#MNEM.UNIT        Data Type   Information
#---------- ----------------  -----------
STRT .M          1892.35080:  START DEPTH
STOP .M          2875.48320:  STOP DEPTH
STEP .M             0.15240:  STEP
NULL .              -999.25:  NULL VALUE
COMP .              Equinor:  COMPANY
WELL .            NO 31/5-7:  WELL
FLD  .                  Eos:  FIELD
LOC  .     Norwegian North Sea:  LOCATION
PROV .              UNKNOWN:  PROVINCE
SRVC .              Equinor:  SERVICE COMPANY
DATE .                     :  DATE
API  .            NO 31/5-7:  API NUMBER
UWI  .            NO 31/5-7:  UNIQUE WELL ID
X    .             524299.7:  X OR EAST-WEST COORDINATE
Y    .            6715849.6:  Y OR NORTH-SOUTH COORDINATE
LATI .     60° 34' 35.14" N:  LATITUDE
LONG .      3° 26' 36.13" E:  LONGITUDE
~Curve Information Block
#MNEM.UNIT         API CODE   Curve Description
#---------- ----------------  -----------------
DEPTH.M                    :  
CARB_FLAG.NONE                 :  Carbonate cement flag, manually edited, 1 = cement
COAL_FLAG.NONE                 :  1=COAL
KLOGH.MD                   :  Horizontal permeability. Boosted in Johansen Fm. (if(KLOGH>400,KLOGH*2.5,KLOGH)
PHIT .V/V                  :  IFC(COAL_FLAG>0.5,0,PHIT)
SAND_FLAG.NONE                 :  Sand flag
VSH  .UNITLESS                 :  Volume of dry VSH
~Parameter Information Block
#MNEM.UNIT            Value   Description
#---------- ----------------  -----------
ACCUMULATE.          69544.84375:  Accumulated KTIMM
PROJECT.     TROLL@be-vlinapp01:  
SET  .             STAT_CPI:  
DATUM_ELEVATION.                  MSL:  Datum_elevation
DEPTH_BOTTOM.M              6245.5:  Downhole depth
DIRECTIONAL_SET.               SURVEY:  Preferred directional survey set
DRILLED_DEPTH.M                2585:  Total Depth - Driller
DRILL_MEAS_REF.                   KB:  Drilling Measured From (Name of Drilling Elevation Reference)
ELEV_MEAS_REF.M                  31:  Elevation of Measurement Reference
ELEV_PERM_DATUM.                  MSL:  Local Permanent Datum
FAULTS_SET.                     :  Preferred faults set
LOGGED_DEPTH.M      2584.899902344:  Total Depth - Logger
MEASUREMENT_REF.                   KB:  Measurement Reference
TVD_BOTTOM.M      6243.987912547:  True Vertical Depth at well bottom
TVD_MIN_REPEAT.M                    :  TVD repeat section tolerance
XOFFSET_BOTTOM.       524405.4148394:  Amount of E/W distance from KB at TD
YOFFSET_BOTTOM.       6715847.712282:  Amount of N/S distance from KB at TD
~Other Information Block
# 
~A       DEPTH      CARB_FLAG      COAL_FLAG          KLOGH           PHIT      SAND_FLAG            VSH 
# ...
    2361.74280      -999.2500      -999.2500         0.0309      -0.002261         0.0000         0.0178
    2361.89520      -999.2500      -999.2500         0.0325      -0.001571         0.0000         0.0312
    2362.04760      -999.2500      -999.2500         0.0405       0.004231         0.0000         0.0679
    2362.20000      -999.2500      -999.2500         0.0491       0.011102         0.0000         0.0810
    2362.35240      -999.2500      -999.2500         0.0498       0.013055         0.0000         0.0645
    2362.50480      -999.2500      -999.2500         0.0469       0.013408         0.0000         0.0416
    2362.65720      -999.2500      -999.2500         0.0622       0.021628         0.0000         0.0050
    2362.80960      -999.2500      -999.2500         0.1929       0.053390         0.0000         0.0743
    2362.96200      -999.2500      -999.2500         1.2492       0.105576         1.0000         0.0722
    2363.11440      -999.2500      -999.2500         6.5148       0.158656         1.0000         0.0535
    2363.26680      -999.2500      -999.2500        15.2946       0.195927         1.0000         0.0981
    2363.41920      -999.2500      -999.2500        25.2803       0.220641         1.0000         0.1397
    2363.57160      -999.2500      -999.2500        37.2789       0.231189         1.0000         0.1246
    2363.72400      -999.2500      -999.2500        58.1248       0.237978         1.0000         0.0782
    2363.87640      -999.2500      -999.2500        63.0462       0.239540         1.0000         0.0715
    2364.02880      -999.2500      -999.2500        52.9709       0.235594         1.0000         0.0826
    2364.18120      -999.2500      -999.2500        20.6080       0.196313         1.0000         0.0440
    2364.33360      -999.2500      -999.2500         2.8851       0.133236         1.0000         0.0669
    2364.48600      -999.2500      -999.2500         0.2549       0.067967         0.0000         0.0849
    2364.63840      -999.2500      -999.2500         0.0896       0.050865         0.0000         0.1250
    2364.79080      -999.2500      -999.2500         0.3845       0.100935         0.0000         0.1913
    2364.94320      -999.2500      -999.2500         3.2039       0.169024         1.0000         0.2321
    2365.09560      -999.2500      -999.2500        13.0027       0.211262         1.0000         0.2135
    2365.24800      -999.2500      -999.2500        10.8115       0.206390         1.0000         0.1756
    2365.40040      -999.2500      -999.2500         8.9800       0.200082         1.0000         0.1565
    2365.55280      -999.2500      -999.2500        14.1931       0.214472         1.0000         0.1652
    2365.70520      -999.2500      -999.2500        26.9872       0.229593         1.0000         0.1768
    2365.85760      -999.2500      -999.2500        40.1991       0.237416         1.0000         0.1448
    2366.01000      -999.2500      -999.2500        41.2468       0.239737         1.0000         0.1527
    2366.16240      -999.2500      -999.2500        36.1933       0.240365         1.0000         0.1809
    2366.31480      -999.2500      -999.2500        37.3765       0.243246         1.0000         0.1793
    2366.46720      -999.2500      -999.2500        42.9991       0.245355         1.0000         0.1329
    2366.61960      -999.2500      -999.2500        49.9660       0.250215         1.0000         0.1121
    2366.77200      -999.2500      -999.2500        52.4653       0.250111         1.0000         0.1443
    2366.92440      -999.2500      -999.2500        49.3144       0.247572         1.0000         0.1623
    2367.07680      -999.2500      -999.2500        31.6576       0.241284         1.0000         0.1545
    2367.22920      -999.2500      -999.2500        25.7550       0.238444         1.0000         0.1303
    2367.38160      -999.2500      -999.2500        20.3083       0.234101         1.0000         0.1745
    2367.53400      -999.2500      -999.2500        28.8478       0.237249         1.0000         0.1800
    2367.68640      -999.2500      -999.2500        38.5709       0.241297         1.0000         0.1697
    2367.83880      -999.2500      -999.2500        43.3343       0.243290         1.0000         0.1372
    2367.99120      -999.2500      -999.2500        41.4319       0.244130         1.0000         0.1368
    2368.14360      -999.2500      -999.2500        41.7290       0.241996         1.0000         0.1366
    2368.29600      -999.2500      -999.2500        49.4554       0.244160         1.0000         0.1429
    2368.44840      -999.2500      -999.2500        54.5284       0.241347         1.0000         0.1089
    2368.60080      -999.2500      -999.2500        43.0987       0.240201         1.0000         0.1470
    2368.75320      -999.2500      -999.2500        32.7440       0.233117         1.0000         0.1598
    2368.90560      -999.2500      -999.2500        18.8291       0.222205         1.0000         0.1969
    2369.05800      -999.2500      -999.2500         8.6294       0.199534         1.0000         0.2169
    2369.21040      -999.2500      -999.2500         2.8655       0.168721         1.0000         0.1637
    2369.36280      -999.2500      -999.2500         1.4718       0.134579         1.0000         0.1330
    2369.51520      -999.2500      -999.2500         0.7956       0.102172         0.0000         0.0636
    2369.66760      -999.2500      -999.2500         0.3708       0.073089         0.0000         0.0811
    2369.82000      -999.2500      -999.2500         0.1320       0.042774         0.0000         0.0478
    2369.97240      -999.2500      -999.2500         0.0566       0.017925         0.0000         0.0649
    2370.12480      -999.2500      -999.2500         0.0401       0.006369         0.0000         0.0573
    2370.27720      -999.2500      -999.2500         0.0475       0.008144         0.0000         0.0637
    2370.42960      -999.2500      -999.2500         0.0591       0.013095         0.0000         0.0234
    2370.58200      -999.2500      -999.2500         0.0558       0.011913         0.0000         0.0285
    2370.73440      -999.2500      -999.2500         0.0564       0.013666         0.0000         0.0273
    2370.88680      -999.2500      -999.2500         0.1062       0.032126         0.0000         0.0411
    2371.03920      -999.2500      -999.2500         0.4451       0.073366         0.0000         0.0383
    2371.19160      -999.2500      -999.2500         2.1076       0.118626         1.0000         0.0438
    2371.34400      -999.2500      -999.2500         2.8488       0.132014         1.0000         0.0564
    2371.49640      -999.2500      -999.2500         1.5395       0.119435         1.0000         0.0599
    2371.64880      -999.2500      -999.2500         1.1570       0.113940         1.0000         0.0382
    2371.80120      -999.2500      -999.2500         4.2387       0.148184         1.0000         0.0668
    2371.95360      -999.2500      -999.2500        17.1183       0.189555         1.0000         0.0417
    2372.10600      -999.2500      -999.2500        15.6643       0.189294         1.0000         0.0570
    2372.25840      -999.2500      -999.2500         2.8066       0.137595         1.0000         0.0949
    2372.41080      -999.2500      -999.2500         0.7969       0.103278         0.0000         0.0429
    2372.56320      -999.2500      -999.2500         1.0255       0.116043         1.0000         0.0459
    2372.71560      -999.2500      -999.2500         3.2870       0.164562         1.0000         0.0567
    2372.86800      -999.2500      -999.2500         8.7107       0.197829         1.0000         0.1403
    2373.02040      -999.2500      -999.2500        10.7013       0.204138         1.0000         0.2109
    2373.17280      -999.2500      -999.2500         9.3938       0.207461         1.0000         0.2539
    2373.32520      -999.2500      -999.2500         9.5255       0.204407         1.0000         0.2344
