~Version Information Block
VERS .                  2.0:  CWLS LOG ASCII STANDARD - VERSION 2.0
WRAP .                   NO:  One line per depth step
~Well Information Block
#MNEM.UNIT        Data Type   Information
#---------- ----------------  -----------
STRT .M          1892.35080:  START DEPTH
STOP .M          2875.48320:  STOP DEPTH
STEP .M             0.15240:  STEP
NULL .              -999.25:  NULL VALUE
COMP .              Equinor:  COMPANY
WELL .            NO 31/5-7:  WELL
FLD  .                  Eos:  FIELD
LOC  .     Norwegian North Sea:  LOCATION
PROV .              UNKNOWN:  PROVINCE
SRVC .              Equinor:  SERVICE COMPANY
DATE .                     :  DATE
API  .            NO 31/5-7:  API NUMBER
UWI  .            NO 31/5-7:  UNIQUE WELL ID
X    .             524299.7:  X OR EAST-WEST COORDINATE
Y    .            6715849.6:  Y OR NORTH-SOUTH COORDINATE
LATI .     60° 34' 35.14" N:  LATITUDE
LONG .      3° 26' 36.13" E:  LONGITUDE
~Curve Information Block
#MNEM.UNIT         API CODE   Curve Description
#---------- ----------------  -----------------
DEPTH.M                    :  
CARB_FLAG.NONE                 :  Carbonate cement flag, manually edited, 1 = cement
COAL_FLAG.NONE                 :  1=COAL
KLOGH.MD                   :  Horizontal permeability. Boosted in Johansen Fm. (if(KLOGH>400,KLOGH*2.5,KLOGH)
PHIT .V/V                  :  IFC(COAL_FLAG>0.5,0,PHIT)
SAND_FLAG.NONE                 :  Sand flag
VSH  .UNITLESS                 :  Volume of dry VSH
~Parameter Information Block
#MNEM.UNIT            Value   Description
#---------- ----------------  -----------
ACCUMULATE.          69544.84375:  Accumulated KTIMM
PROJECT.     TROLL@be-vlinapp01:  
SET  .             STAT_CPI:  
DATUM_ELEVATION.                  MSL:  Datum_elevation
DEPTH_BOTTOM.M              6245.5:  Downhole depth
DIRECTIONAL_SET.               SURVEY:  Preferred directional survey set
DRILLED_DEPTH.M                2585:  Total Depth - Driller
DRILL_MEAS_REF.                   KB:  Drilling Measured From (Name of Drilling Elevation Reference)
ELEV_MEAS_REF.M                  31:  Elevation of Measurement Reference
ELEV_PERM_DATUM.                  MSL:  Local Permanent Datum
FAULTS_SET.                     :  Preferred faults set
LOGGED_DEPTH.M      2584.899902344:  Total Depth - Logger
MEASUREMENT_REF.                   KB:  Measurement Reference
TVD_BOTTOM.M      6243.987912547:  True Vertical Depth at well bottom
TVD_MIN_REPEAT.M                    :  TVD repeat section tolerance
XOFFSET_BOTTOM.       524405.4148394:  Amount of E/W distance from KB at TD
YOFFSET_BOTTOM.       6715847.712282:  Amount of N/S distance from KB at TD
~Other Information Block
# 
~A       DEPTH      CARB_FLAG      COAL_FLAG          KLOGH           PHIT      SAND_FLAG            VSH 
# ...
    2631.64320      -999.2500      -999.2500         0.0028       0.088891      -999.2500         0.7644
    2631.79560      -999.2500      -999.2500         0.0021       0.088023      -999.2500         0.7852
    2631.94800      -999.2500      -999.2500         0.0007       0.082786      -999.2500         0.8554
    2632.10040      -999.2500      -999.2500         0.0003       0.077668      -999.2500         0.9095
    2632.25280      -999.2500      -999.2500         0.0001       0.070625      -999.2500         0.9475
    2632.40520      -999.2500      -999.2500         0.0001       0.071994      -999.2500         0.9435
    2632.55760      -999.2500      -999.2500         0.0002       0.076401      -999.2500         0.9296
    2632.71000      -999.2500      -999.2500         0.0003       0.078458      -999.2500         0.9049
    2632.86240      -999.2500      -999.2500         0.0003       0.077988      -999.2500         0.9130
    2633.01480      -999.2500      -999.2500         0.0011       0.076396      -999.2500         0.8156
    2633.16720      -999.2500      -999.2500         0.0011       0.077373      -999.2500         0.8139
    2633.31960      -999.2500      -999.2500         0.0011       0.079810      -999.2500         0.8190
    2633.47200      -999.2500      -999.2500         0.0008       0.080807      -999.2500         0.8474
    2633.62440      -999.2500      -999.2500         0.0007       0.082206      -999.2500         0.8534
    2633.77680      -999.2500      -999.2500         0.0010       0.080538      -999.2500         0.8253
    2633.92920      -999.2500      -999.2500         0.0008       0.076506      -999.2500         0.8406
    2634.08160      -999.2500      -999.2500         0.0007       0.073171      -999.2500         0.8158
    2634.23400      -999.2500      -999.2500         0.0005       0.070733      -999.2500         0.8290
    2634.38640      -999.2500      -999.2500         0.0006       0.071286      -999.2500         0.8448
    2634.53880      -999.2500      -999.2500         0.0006       0.072658      -999.2500         0.8523
    2634.69120      -999.2500      -999.2500         0.0005       0.073053      -999.2500         0.8673
    2634.84360      -999.2500      -999.2500         0.0003       0.070066      -999.2500         0.8887
    2634.99600      -999.2500      -999.2500         0.0006       0.070965      -999.2500         0.8501
    2635.14840      -999.2500      -999.2500         0.0011       0.074969      -999.2500         0.8137
    2635.30080      -999.2500      -999.2500         0.0028       0.078661      -999.2500         0.7485
    2635.45320      -999.2500      -999.2500         0.0017       0.078742      -999.2500         0.7831
    2635.60560      -999.2500      -999.2500         0.0012       0.076883      -999.2500         0.8054
    2635.75800      -999.2500      -999.2500         0.0010       0.076512      -999.2500         0.8178
    2635.91040      -999.2500      -999.2500         0.0011       0.075912      -999.2500         0.8140
    2636.06280      -999.2500      -999.2500         0.0012       0.075958      -999.2500         0.8063
    2636.21520      -999.2500      -999.2500         0.0015       0.077629      -999.2500         0.7933
    2636.36760      -999.2500      -999.2500         0.0019       0.077972      -999.2500         0.7765
    2636.52000      -999.2500      -999.2500         0.0012       0.077057      -999.2500         0.8071
    2636.67240      -999.2500      -999.2500         0.0014       0.077467      -999.2500         0.7959
    2636.82480      -999.2500      -999.2500         0.0013       0.078162      -999.2500         0.8047
    2636.97720      -999.2500      -999.2500         0.0012       0.079346      -999.2500         0.8135
    2637.12960      -999.2500      -999.2500         0.0008       0.080012      -999.2500         0.8408
    2637.28200      -999.2500      -999.2500         0.0010       0.078376      -999.2500         0.8250
    2637.43440      -999.2500      -999.2500         0.0021       0.076932      -999.2500         0.7663
    2637.58680      -999.2500      -999.2500         0.0020       0.076102      -999.2500         0.7674
    2637.73920      -999.2500      -999.2500         0.0026       0.078729      -999.2500         0.7531
    2637.89160      -999.2500      -999.2500         0.0016       0.081918      -999.2500         0.7924
    2638.04400      -999.2500      -999.2500         0.0031       0.082366      -999.2500         0.7471
    2638.19640      -999.2500      -999.2500         0.0090       0.086584      -999.2500         0.6744
    2638.34880         0.0000      -999.2500         0.2301       0.132733         0.0000         0.5137
    2638.50120         0.0000      -999.2500        13.3655       0.202395         1.0000         0.3205
    2638.65360         0.0000      -999.2500       258.6337       0.263584         1.0000         0.1957
    2638.80600         0.0000      -999.2500       508.5335       0.283746         1.0000         0.1769
    2638.95840         0.0000      -999.2500       267.2970       0.272310         1.0000         0.2068
    2639.11080         0.0000      -999.2500       102.2100       0.253342         1.0000         0.2487
    2639.26320         0.0000      -999.2500        53.5005       0.233449         1.0000         0.2462
    2639.41560         0.0000      -999.2500        34.6190       0.218944         1.0000         0.2259
    2639.56800         0.0000      -999.2500        35.3045       0.208486         1.0000         0.2578
    2639.72040         0.0000      -999.2500        20.6640       0.192246         1.0000         0.2723
    2639.87280         0.0000      -999.2500         5.1265       0.167480         1.0000         0.3373
    2640.02520         0.0000      -999.2500         0.9440       0.143355         0.0000         0.4254
    2640.17760         0.0000      -999.2500         0.2270       0.123259         0.0000         0.4999
    2640.33000         0.0000      -999.2500         0.1056       0.113691         0.0000         0.5419
    2640.48240         0.0000      -999.2500         0.1041       0.110835         0.0000         0.5385
    2640.63480         0.0000      -999.2500         0.1141       0.112199         0.0000         0.5338
    2640.78720         0.0000      -999.2500         0.1152       0.111065         0.0000         0.5313
    2640.93960         0.0000      -999.2500         0.1091       0.110363         0.0000         0.5343
    2641.09200         0.0000      -999.2500         0.1000       0.108673         0.0000         0.5381
    2641.24440         0.0000      -999.2500         0.1137       0.109317         0.0000         0.5296
    2641.39680         0.0000      -999.2500         0.1211       0.108491         0.0000         0.5236
    2641.54920         0.0000      -999.2500         0.1028       0.104479         0.0000         0.5295
    2641.70160         0.0000      -999.2500         0.0687       0.103898         0.0000         0.5586
    2641.85400         0.0000      -999.2500         0.0419       0.106499         0.0000         0.5993
    2642.00640         0.0000      -999.2500         0.1036       0.135068         0.0000         0.5765
    2642.15880         0.0000      -999.2500         0.6886       0.173826         0.0000         0.4962
    2642.31120         0.0000      -999.2500         6.3001       0.215707         1.0000         0.3970
    2642.46360         0.0000      -999.2500        17.9227       0.236749         1.0000         0.3521
    2642.61600         0.0000      -999.2500        26.9608       0.241891         1.0000         0.3298
    2642.76840         0.0000      -999.2500        42.7608       0.240398         1.0000         0.2269
    2642.92080         0.0000      -999.2500        67.3062       0.236277         1.0000         0.2305
    2643.07320         0.0000      -999.2500       104.9246       0.236436         1.0000         0.2205
    2643.22560         0.0000      -999.2500        85.5766       0.229976         1.0000         0.2255
