~Version Information Block
VERS .                  2.0:  CWLS LOG ASCII STANDARD - VERSION 2.0
WRAP .                   NO:  One line per depth step
~Well Information Block
#MNEM.UNIT        Data Type   Information
#---------- ----------------  -----------
STRT .M          1892.35080:  START DEPTH
STOP .M          2875.48320:  STOP DEPTH
STEP .M             0.15240:  STEP
NULL .              -999.25:  NULL VALUE
COMP .              Equinor:  COMPANY
WELL .            NO 31/5-7:  WELL
FLD  .                  Eos:  FIELD
LOC  .     Norwegian North Sea:  LOCATION
PROV .              UNKNOWN:  PROVINCE
SRVC .              Equinor:  SERVICE COMPANY
DATE .                     :  DATE
API  .            NO 31/5-7:  API NUMBER
UWI  .            NO 31/5-7:  UNIQUE WELL ID
X    .             524299.7:  X OR EAST-WEST COORDINATE
Y    .            6715849.6:  Y OR NORTH-SOUTH COORDINATE
LATI .     60° 34' 35.14" N:  LATITUDE
LONG .      3° 26' 36.13" E:  LONGITUDE
~Curve Information Block
#MNEM.UNIT         API CODE   Curve Description
#---------- ----------------  -----------------
DEPTH.M                    :  
CARB_FLAG.NONE                 :  Carbonate cement flag, manually edited, 1 = cement
COAL_FLAG.NONE                 :  1=COAL
KLOGH.MD                   :  Horizontal permeability. Boosted in Johansen Fm. (if(KLOGH>400,KLOGH*2.5,KLOGH)
PHIT .V/V                  :  IFC(COAL_FLAG>0.5,0,PHIT)
SAND_FLAG.NONE                 :  Sand flag
VSH  .UNITLESS                 :  Volume of dry VSH
~Parameter Information Block
#MNEM.UNIT            Value   Description
#---------- ----------------  -----------
ACCUMULATE.          69544.84375:  Accumulated KTIMM
PROJECT.     TROLL@be-vlinapp01:  
SET  .             STAT_CPI:  
DATUM_ELEVATION.                  MSL:  Datum_elevation
DEPTH_BOTTOM.M              6245.5:  Downhole depth
DIRECTIONAL_SET.               SURVEY:  Preferred directional survey set
DRILLED_DEPTH.M                2585:  Total Depth - Driller
DRILL_MEAS_REF.                   KB:  Drilling Measured From (Name of Drilling Elevation Reference)
ELEV_MEAS_REF.M                  31:  Elevation of Measurement Reference
ELEV_PERM_DATUM.                  MSL:  Local Permanent Datum
FAULTS_SET.                     :  Preferred faults set
LOGGED_DEPTH.M      2584.899902344:  Total Depth - Logger
MEASUREMENT_REF.                   KB:  Measurement Reference
TVD_BOTTOM.M      6243.987912547:  True Vertical Depth at well bottom
TVD_MIN_REPEAT.M                    :  TVD repeat section tolerance
XOFFSET_BOTTOM.       524405.4148394:  Amount of E/W distance from KB at TD
YOFFSET_BOTTOM.       6715847.712282:  Amount of N/S distance from KB at TD
~Other Information Block
# 
~A       DEPTH      CARB_FLAG      COAL_FLAG          KLOGH           PHIT      SAND_FLAG            VSH 
# ...
    2690.31720         0.0000      -999.2500       577.4734       0.244270         1.0000         0.0940
    2690.46960         0.0000      -999.2500       488.6724       0.245078         1.0000         0.0689
    2690.62200         0.0000      -999.2500       652.2396       0.252341         1.0000         0.0521
    2690.77440         0.0000      -999.2500       885.1035       0.261901         1.0000         0.0662
    2690.92680         0.0000      -999.2500       925.7372       0.270200         1.0000         0.0705
    2691.07920         0.0000      -999.2500       914.0942       0.274574         1.0000         0.0494
    2691.23160         0.0000      -999.2500      1434.6310       0.276141         1.0000         0.0217
    2691.38400         0.0000      -999.2500      1548.2999       0.275619         1.0000         0.0345
    2691.53640         0.0000      -999.2500      1649.9286       0.272570         1.0000         0.0548
    2691.68880         0.0000      -999.2500      1906.7618       0.269006         1.0000         0.0520
    2691.84120         0.0000      -999.2500      1825.1702       0.265160         1.0000         0.0531
    2691.99360         0.0000      -999.2500      1326.2699       0.257347         1.0000         0.0459
    2692.14600         0.0000      -999.2500       823.0894       0.247747         1.0000         0.0483
    2692.29840         0.0000      -999.2500       427.5288       0.238779         1.0000         0.0156
    2692.45080         0.0000      -999.2500       231.5152       0.231420         1.0000         0.0179
    2692.60320         0.0000      -999.2500       148.5091       0.228598         1.0000         0.0260
    2692.75560         0.0000      -999.2500       219.4130       0.237825         1.0000         0.0672
    2692.90800         0.0000      -999.2500       454.2050       0.254848         1.0000         0.0872
    2693.06040         0.0000      -999.2500      1063.0507       0.268274         1.0000         0.0827
    2693.21280         0.0000      -999.2500      1280.6218       0.266220         1.0000         0.0611
    2693.36520         0.0000      -999.2500      1189.4497       0.257252         1.0000         0.0339
    2693.51760         0.0000      -999.2500       942.6514       0.256273         1.0000         0.0293
    2693.67000         0.0000      -999.2500       869.2686       0.262259         1.0000         0.0402
    2693.82240         0.0000      -999.2500       728.6173       0.272520         1.0000         0.0743
    2693.97480         0.0000      -999.2500       779.6771       0.275910         1.0000         0.1106
    2694.12720         0.0000      -999.2500       920.8480       0.280059         1.0000         0.0762
    2694.27960         0.0000      -999.2500      1263.0543       0.285473         1.0000         0.0744
    2694.43200         0.0000      -999.2500      1725.6981       0.292014         1.0000         0.0666
    2694.58440         0.0000      -999.2500      1524.4535       0.281953         1.0000         0.0926
    2694.73680         0.0000      -999.2500       450.1412       0.239877         1.0000         0.1177
    2694.88920         0.0000      -999.2500        45.7716       0.188199         1.0000         0.2070
    2695.04160         0.0000      -999.2500         1.5861       0.132681         1.0000         0.3703
    2695.19400         0.0000      -999.2500         0.1228       0.097344         0.0000         0.5052
    2695.34640         0.0000      -999.2500         0.0298       0.073517         0.0000         0.5733
    2695.49880         0.0000      -999.2500         0.0386       0.076516         0.0000         0.5588
    2695.65120         0.0000      -999.2500         0.0613       0.089194         0.0000         0.5441
    2695.80360         0.0000      -999.2500         0.0790       0.099230         0.0000         0.5409
    2695.95600         0.0000      -999.2500         0.0869       0.101543         0.0000         0.5375
    2696.10840         0.0000      -999.2500         0.1024       0.104786         0.0000         0.5303
    2696.26080         0.0000      -999.2500         0.1111       0.105121         0.0000         0.5248
    2696.41320         0.0000      -999.2500         0.1311       0.106148         0.0000         0.5141
    2696.56560         0.0000      -999.2500         0.1324       0.107401         0.0000         0.5153
    2696.71800         0.0000      -999.2500         0.1208       0.109467         0.0000         0.5253
    2696.87040         0.0000      -999.2500         0.1092       0.111499         0.0000         0.5360
    2697.02280         0.0000      -999.2500         0.1136       0.111189         0.0000         0.5325
    2697.17520         0.0000      -999.2500         0.0918       0.109169         0.0000         0.5452
    2697.32760         0.0000      -999.2500         0.0852       0.108917         0.0000         0.5504
    2697.48000         0.0000      -999.2500         0.0752       0.109998         0.0000         0.5613
    2697.63240         0.0000      -999.2500         0.1675       0.116637         0.0000         0.5122
    2697.78480         0.0000      -999.2500         0.2372       0.117945         0.0000         0.4884
    2697.93720         0.0000      -999.2500         0.3605       0.119705         0.0000         0.4601
    2698.08960         0.0000      -999.2500         0.3514       0.118473         0.0000         0.4600
    2698.24200         0.0000      -999.2500         0.5485       0.118931         0.0000         0.4277
    2698.39440         0.0000      -999.2500         0.6550       0.115858         0.0000         0.4098
    2698.54680         0.0000      -999.2500         0.5963       0.112977         0.0000         0.4122
    2698.69920         0.0000      -999.2500         0.5586       0.112474         0.0000         0.4163
    2698.85160         0.0000      -999.2500         0.4434       0.114831         0.0000         0.4371
    2699.00400         0.0000      -999.2500         0.4602       0.117298         0.0000         0.4382
    2699.15640         0.0000      -999.2500         0.3221       0.117970         0.0000         0.4657
    2699.30880         0.0000      -999.2500         0.3389       0.117229         0.0000         0.4608
    2699.46120         0.0000      -999.2500         0.3849       0.119321         0.0000         0.4546
    2699.61360         0.0000      -999.2500         0.7583       0.125436         0.0000         0.4138
    2699.76600         0.0000      -999.2500         1.0669       0.130334         1.0000         0.3961
    2699.91840         0.0000      -999.2500         0.8804       0.129329         0.0000         0.4088
    2700.07080         0.0000      -999.2500         0.5642       0.121022         0.0000         0.4289
    2700.22320         0.0000      -999.2500         0.3878       0.112589         0.0000         0.4436
    2700.37560         0.0000      -999.2500         0.3372       0.111136         0.0000         0.4517
    2700.52800         0.0000      -999.2500         0.4254       0.118454         0.0000         0.4458
    2700.68040         0.0000      -999.2500         0.6292       0.127832         0.0000         0.4314
    2700.83280         0.0000      -999.2500         0.8327       0.131778         0.0000         0.4167
    2700.98520         0.0000      -999.2500         0.7053       0.127835         0.0000         0.4229
    2701.13760         0.0000      -999.2500         0.6705       0.122165         0.0000         0.4178
    2701.29000         0.0000      -999.2500         0.5982       0.118778         0.0000         0.4210
    2701.44240         0.0000      -999.2500         0.4876       0.117640         0.0000         0.4344
    2701.59480         0.0000      -999.2500         0.3402       0.116814         0.0000         0.4599
    2701.74720         0.0000      -999.2500         0.2690       0.119507         0.0000         0.4815
    2701.89960         0.0000      -999.2500         0.4912       0.132435         0.0000         0.4569
