~Version Information Block
VERS .                  2.0:  CWLS LOG ASCII STANDARD - VERSION 2.0
WRAP .                   NO:  One line per depth step
~Well Information Block
#MNEM.UNIT        Data Type   Information
#---------- ----------------  -----------
STRT .M          1892.35080:  START DEPTH
STOP .M          2875.48320:  STOP DEPTH
STEP .M             0.15240:  STEP
NULL .              -999.25:  NULL VALUE
COMP .              Equinor:  COMPANY
WELL .            NO 31/5-7:  WELL
FLD  .                  Eos:  FIELD
LOC  .     Norwegian North Sea:  LOCATION
PROV .              UNKNOWN:  PROVINCE
SRVC .              Equinor:  SERVICE COMPANY
DATE .                     :  DATE
API  .            NO 31/5-7:  API NUMBER
UWI  .            NO 31/5-7:  UNIQUE WELL ID
X    .             524299.7:  X OR EAST-WEST COORDINATE
Y    .            6715849.6:  Y OR NORTH-SOUTH COORDINATE
LATI .     60° 34' 35.14" N:  LATITUDE
LONG .      3° 26' 36.13" E:  LONGITUDE
~Curve Information Block
#MNEM.UNIT         API CODE   Curve Description
#---------- ----------------  -----------------
DEPTH.M                    :  
CARB_FLAG.NONE                 :  Carbonate cement flag, manually edited, 1 = cement
COAL_FLAG.NONE                 :  1=COAL
KLOGH.MD                   :  Horizontal permeability. Boosted in Johansen Fm. (if(KLOGH>400,KLOGH*2.5,KLOGH)
PHIT .V/V                  :  IFC(COAL_FLAG>0.5,0,PHIT)
SAND_FLAG.NONE                 :  Sand flag
VSH  .UNITLESS                 :  Volume of dry VSH
~Parameter Information Block
#MNEM.UNIT            Value   Description
#---------- ----------------  -----------
ACCUMULATE.          69544.84375:  Accumulated KTIMM
PROJECT.     TROLL@be-vlinapp01:  
SET  .             STAT_CPI:  
DATUM_ELEVATION.                  MSL:  Datum_elevation
DEPTH_BOTTOM.M              6245.5:  Downhole depth
DIRECTIONAL_SET.               SURVEY:  Preferred directional survey set
DRILLED_DEPTH.M                2585:  Total Depth - Driller
DRILL_MEAS_REF.                   KB:  Drilling Measured From (Name of Drilling Elevation Reference)
ELEV_MEAS_REF.M                  31:  Elevation of Measurement Reference
ELEV_PERM_DATUM.                  MSL:  Local Permanent Datum
FAULTS_SET.                     :  Preferred faults set
LOGGED_DEPTH.M      2584.899902344:  Total Depth - Logger
MEASUREMENT_REF.                   KB:  Measurement Reference
TVD_BOTTOM.M      6243.987912547:  True Vertical Depth at well bottom
TVD_MIN_REPEAT.M                    :  TVD repeat section tolerance
XOFFSET_BOTTOM.       524405.4148394:  Amount of E/W distance from KB at TD
YOFFSET_BOTTOM.       6715847.712282:  Amount of N/S distance from KB at TD
~Other Information Block
# 
~A       DEPTH      CARB_FLAG      COAL_FLAG          KLOGH           PHIT      SAND_FLAG            VSH 
# ...
    1962.75960      -999.2500      -999.2500       937.1202       0.338111         1.0000         0.1062
    1962.91200      -999.2500      -999.2500       705.4657       0.337922         1.0000         0.1588
    1963.06440      -999.2500      -999.2500       736.6351       0.341002         1.0000         0.1676
    1963.21680      -999.2500      -999.2500       815.7565       0.339362         1.0000         0.1393
    1963.36920      -999.2500      -999.2500       768.2358       0.333654         1.0000         0.1191
    1963.52160      -999.2500      -999.2500       515.5264       0.323587         1.0000         0.1388
    1963.67400      -999.2500      -999.2500       217.7868       0.309720         1.0000         0.2250
    1963.82640      -999.2500      -999.2500        99.8129       0.293165         1.0000         0.2759
    1963.97880      -999.2500      -999.2500        58.7845       0.281762         1.0000         0.3092
    1964.13120      -999.2500      -999.2500        62.8314       0.280508         1.0000         0.2984
    1964.28360      -999.2500      -999.2500        64.5042       0.280876         1.0000         0.2954
    1964.43600      -999.2500      -999.2500        66.0573       0.277032         1.0000         0.2697
    1964.58840      -999.2500      -999.2500        46.5615       0.272852         1.0000         0.3127
    1964.74080      -999.2500      -999.2500        42.3092       0.273932         1.0000         0.3367
    1964.89320      -999.2500      -999.2500        44.9537       0.281702         1.0000         0.3539
    1965.04560      -999.2500      -999.2500        70.7860       0.289457         1.0000         0.3253
    1965.19800      -999.2500      -999.2500        71.1416       0.291205         1.0000         0.3340
    1965.35040      -999.2500      -999.2500        38.9742       0.282480         1.0000         0.3994
    1965.50280      -999.2500      -999.2500        24.9228       0.270112         0.0000         0.4156
    1965.65520      -999.2500      -999.2500        20.7782       0.260680         1.0000         0.3978
    1965.80760      -999.2500      -999.2500        16.2949       0.254206         0.0000         0.4080
    1965.96000      -999.2500      -999.2500        10.8487       0.252689         0.0000         0.4573
    1966.11240      -999.2500      -999.2500        15.7969       0.260926         0.0000         0.4105
    1966.26480      -999.2500      -999.2500        18.4114       0.270461         0.0000         0.4084
    1966.41720      -999.2500      -999.2500        24.8474       0.274077         1.0000         0.3870
    1966.56960      -999.2500      -999.2500        24.7791       0.272892         0.0000         0.4161
    1966.72200      -999.2500      -999.2500        34.3207       0.273917         1.0000         0.3762
    1966.87440      -999.2500      -999.2500        39.5856       0.277074         1.0000         0.3667
    1967.02680      -999.2500      -999.2500        38.3827       0.275315         1.0000         0.3628
    1967.17920      -999.2500      -999.2500        33.0526       0.274008         1.0000         0.3838
    1967.33160      -999.2500      -999.2500        43.2198       0.274918         1.0000         0.3382
    1967.48400      -999.2500      -999.2500        43.3055       0.276457         1.0000         0.3463
    1967.63640      -999.2500      -999.2500        35.4161       0.269999         1.0000         0.3486
    1967.78880      -999.2500      -999.2500        15.2905       0.257449         1.0000         0.3863
    1967.94120      -999.2500      -999.2500        10.8896       0.247013         0.0000         0.4444
    1968.09360      -999.2500      -999.2500        10.3563       0.241392         0.0000         0.4228
    1968.24600      -999.2500      -999.2500         7.8251       0.235474         0.0000         0.4431
    1968.39840      -999.2500      -999.2500         7.4256       0.231659         0.0000         0.4319
    1968.55080      -999.2500      -999.2500         7.3129       0.230982         0.0000         0.4310
    1968.70320      -999.2500      -999.2500         8.9715       0.236220         0.0000         0.4214
    1968.85560      -999.2500      -999.2500        11.7636       0.238209         1.0000         0.3812
    1969.00800      -999.2500      -999.2500        12.2933       0.239847         1.0000         0.3819
    1969.16040      -999.2500      -999.2500        16.7140       0.243756         1.0000         0.3455
    1969.31280      -999.2500      -999.2500        15.4094       0.250384         1.0000         0.3974
    1969.46520      -999.2500      -999.2500        20.4523       0.266213         0.0000         0.4314
    1969.61760      -999.2500      -999.2500        37.3606       0.275356         1.0000         0.3681
    1969.77000      -999.2500      -999.2500        56.3992       0.285269         1.0000         0.3451
    1969.92240      -999.2500      -999.2500        71.3387       0.287286         1.0000         0.3118
    1970.07480      -999.2500      -999.2500        90.1958       0.296763         1.0000         0.3199
    1970.22720      -999.2500      -999.2500       139.3063       0.306798         1.0000         0.2932
    1970.37960      -999.2500      -999.2500       187.4953       0.316702         1.0000         0.2918
    1970.53200      -999.2500      -999.2500       267.7559       0.326099         1.0000         0.2764
    1970.68440      -999.2500      -999.2500       397.9322       0.331153         1.0000         0.2295
    1970.83680      -999.2500      -999.2500       393.9917       0.329919         1.0000         0.2246
    1970.98920      -999.2500      -999.2500       344.0883       0.325935         1.0000         0.2281
    1971.14160      -999.2500      -999.2500       172.5513       0.320919         1.0000         0.3308
    1971.29400      -999.2500      -999.2500       180.5657       0.318708         1.0000         0.3100
    1971.44640      -999.2500      -999.2500       191.8049       0.314321         1.0000         0.2744
    1971.59880      -999.2500      -999.2500       239.6035       0.313127         1.0000         0.2257
    1971.75120      -999.2500      -999.2500       172.4357       0.311117         1.0000         0.2768
    1971.90360      -999.2500      -999.2500       113.8070       0.306429         1.0000         0.3293
    1972.05600      -999.2500      -999.2500        99.7518       0.302668         1.0000         0.3335
    1972.20840      -999.2500      -999.2500       135.6399       0.303098         1.0000         0.2778
    1972.36080      -999.2500      -999.2500       139.2822       0.305970         1.0000         0.2887
    1972.51320      -999.2500      -999.2500       129.7527       0.305759         1.0000         0.3009
    1972.66560      -999.2500      -999.2500        83.3579       0.298267         1.0000         0.3431
    1972.81800      -999.2500      -999.2500        69.7684       0.289466         1.0000         0.3281
    1972.97040      -999.2500      -999.2500        63.6895       0.283348         1.0000         0.3115
    1973.12280      -999.2500      -999.2500        61.0270       0.285999         1.0000         0.3342
    1973.27520      -999.2500      -999.2500        43.5157       0.283040         1.0000         0.3817
    1973.42760      -999.2500      -999.2500        22.4069       0.274540         0.0000         0.4601
    1973.58000      -999.2500      -999.2500        17.5779       0.261028         0.0000         0.4313
    1973.73240      -999.2500      -999.2500        11.4173       0.256152         0.0000         0.4859
    1973.88480      -999.2500      -999.2500        16.1667       0.258528         0.0000         0.4333
    1974.03720      -999.2500      -999.2500        14.3155       0.257842         0.0000         0.4336
    1974.18960      -999.2500      -999.2500        23.7959       0.257623         1.0000         0.3554
    1974.34200      -999.2500      -999.2500        22.5048       0.254893         1.0000         0.3380
