~Version Information Block
VERS .                  2.0:  CWLS LOG ASCII STANDARD - VERSION 2.0
WRAP .                   NO:  One line per depth step
~Well Information Block
#MNEM.UNIT        Data Type   Information
#---------- ----------------  -----------
STRT .M          1892.35080:  START DEPTH
STOP .M          2875.48320:  STOP DEPTH
STEP .M             0.15240:  STEP
NULL .              -999.25:  NULL VALUE
COMP .              Equinor:  COMPANY
WELL .            NO 31/5-7:  WELL
FLD  .                  Eos:  FIELD
LOC  .     Norwegian North Sea:  LOCATION
PROV .              UNKNOWN:  PROVINCE
SRVC .              Equinor:  SERVICE COMPANY
DATE .                     :  DATE
API  .            NO 31/5-7:  API NUMBER
UWI  .            NO 31/5-7:  UNIQUE WELL ID
X    .             524299.7:  X OR EAST-WEST COORDINATE
Y    .            6715849.6:  Y OR NORTH-SOUTH COORDINATE
LATI .     60° 34' 35.14" N:  LATITUDE
LONG .      3° 26' 36.13" E:  LONGITUDE
~Curve Information Block
#MNEM.UNIT         API CODE   Curve Description
#---------- ----------------  -----------------
DEPTH.M                    :  
CARB_FLAG.NONE                 :  Carbonate cement flag, manually edited, 1 = cement
COAL_FLAG.NONE                 :  1=COAL
KLOGH.MD                   :  Horizontal permeability. Boosted in Johansen Fm. (if(KLOGH>400,KLOGH*2.5,KLOGH)
PHIT .V/V                  :  IFC(COAL_FLAG>0.5,0,PHIT)
SAND_FLAG.NONE                 :  Sand flag
VSH  .UNITLESS                 :  Volume of dry VSH
~Parameter Information Block
#MNEM.UNIT            Value   Description
#---------- ----------------  -----------
ACCUMULATE.          69544.84375:  Accumulated KTIMM
PROJECT.     TROLL@be-vlinapp01:  
SET  .             STAT_CPI:  
DATUM_ELEVATION.                  MSL:  Datum_elevation
DEPTH_BOTTOM.M              6245.5:  Downhole depth
DIRECTIONAL_SET.               SURVEY:  Preferred directional survey set
DRILLED_DEPTH.M                2585:  Total Depth - Driller
DRILL_MEAS_REF.                   KB:  Drilling Measured From (Name of Drilling Elevation Reference)
ELEV_MEAS_REF.M                  31:  Elevation of Measurement Reference
ELEV_PERM_DATUM.                  MSL:  Local Permanent Datum
FAULTS_SET.                     :  Preferred faults set
LOGGED_DEPTH.M      2584.899902344:  Total Depth - Logger
MEASUREMENT_REF.                   KB:  Measurement Reference
TVD_BOTTOM.M      6243.987912547:  True Vertical Depth at well bottom
TVD_MIN_REPEAT.M                    :  TVD repeat section tolerance
XOFFSET_BOTTOM.       524405.4148394:  Amount of E/W distance from KB at TD
YOFFSET_BOTTOM.       6715847.712282:  Amount of N/S distance from KB at TD
~Other Information Block
# 
~A       DEPTH      CARB_FLAG      COAL_FLAG          KLOGH           PHIT      SAND_FLAG            VSH 
# ...
    1904.08560      -999.2500      -999.2500      -999.2500    -999.250000         0.0000      -999.2500
    1904.23800      -999.2500      -999.2500      -999.2500    -999.250000         0.0000      -999.2500
    1904.39040      -999.2500      -999.2500      -999.2500    -999.250000         0.0000      -999.2500
    1904.54280      -999.2500      -999.2500      -999.2500    -999.250000         0.0000      -999.2500
    1904.69520      -999.2500      -999.2500      -999.2500    -999.250000         0.0000      -999.2500
    1904.84760      -999.2500      -999.2500      -999.2500    -999.250000         0.0000      -999.2500
    1905.00000      -999.2500      -999.2500      -999.2500    -999.250000         0.0000      -999.2500
    1905.15240      -999.2500      -999.2500      -999.2500    -999.250000         0.0000      -999.2500
    1905.30480      -999.2500      -999.2500      -999.2500    -999.250000         0.0000      -999.2500
    1905.45720      -999.2500      -999.2500      -999.2500    -999.250000         0.0000      -999.2500
    1905.60960      -999.2500      -999.2500      -999.2500    -999.250000         0.0000      -999.2500
    1905.76200      -999.2500      -999.2500      -999.2500    -999.250000         0.0000      -999.2500
    1905.91440      -999.2500      -999.2500      -999.2500    -999.250000         0.0000      -999.2500
    1906.06680      -999.2500      -999.2500      -999.2500    -999.250000         0.0000      -999.2500
    1906.21920      -999.2500      -999.2500         2.0458       0.250720         0.0000         0.7806
    1906.37160      -999.2500      -999.2500         2.5142       0.252280         0.0000         0.7502
    1906.52400      -999.2500      -999.2500         5.0105       0.254993         0.0000         0.6350
    1906.67640      -999.2500      -999.2500         4.3361       0.265137         0.0000         0.7183
    1906.82880      -999.2500      -999.2500         7.0083       0.269958         0.0000         0.6543
    1906.98120      -999.2500      -999.2500         7.2494       0.275301         0.0000         0.6774
    1907.13360      -999.2500      -999.2500         7.9758       0.277459         0.0000         0.6713
    1907.28600      -999.2500      -999.2500         5.1520       0.278001         0.0000         0.7568
    1907.43840      -999.2500      -999.2500         4.3556       0.279928         0.0000         0.7991
    1907.59080      -999.2500      -999.2500         4.7537       0.279597         0.0000         0.7808
    1907.74320      -999.2500      -999.2500         7.3534       0.278211         0.0000         0.6908
    1907.89560      -999.2500      -999.2500         7.5959       0.271899         0.0000         0.6498
    1908.04800      -999.2500      -999.2500         5.5775       0.264438         0.0000         0.6669
    1908.20040      -999.2500      -999.2500         5.1769       0.268311         0.0000         0.7024
    1908.35280      -999.2500      -999.2500         2.0735       0.271771         0.0000         0.8943
    1908.50520      -999.2500      -999.2500         3.2758       0.279024         0.0000         0.8480
    1908.65760      -999.2500      -999.2500         1.6667       0.285672         0.0000         1.0123
    1908.81000      -999.2500      -999.2500         4.3185       0.294603         0.0000         0.8818
    1908.96240      -999.2500      -999.2500         5.3779       0.293038         0.0000         0.8317
    1909.11480      -999.2500      -999.2500         6.4051       0.275463         0.0000         0.7017
    1909.26720      -999.2500      -999.2500         2.4342       0.258913         0.0000         0.7930
    1909.41960      -999.2500      -999.2500         0.4460       0.255528         0.0000         1.0947
    1909.57200      -999.2500      -999.2500         0.6170       0.263968         0.0000         1.0801
    1909.72440      -999.2500      -999.2500         0.8340       0.273955         0.0000         1.0783
    1909.87680      -999.2500      -999.2500         1.5908       0.277430         0.0000         0.9755
    1910.02920      -999.2500      -999.2500         1.4156       0.273517         0.0000         0.9760
    1910.18160      -999.2500      -999.2500         2.5999       0.272930         0.0000         0.8579
    1910.33400      -999.2500      -999.2500         2.0324       0.270737         0.0000         0.8923
    1910.48640      -999.2500      -999.2500         2.3180       0.271086         0.0000         0.8694
    1910.63880      -999.2500      -999.2500         3.0894       0.259792         0.0000         0.7528
    1910.79120      -999.2500      -999.2500         1.5389       0.247774         0.0000         0.8181
    1910.94360      -999.2500      -999.2500         0.9568       0.234807         0.0000         0.8362
    1911.09600      -999.2500      -999.2500         0.7193       0.231076         0.0000         0.8694
    1911.24840      -999.2500      -999.2500         1.0174       0.225235         0.0000         0.7717
    1911.40080      -999.2500      -999.2500         0.9779       0.223893         0.0000         0.7718
    1911.55320      -999.2500      -999.2500         0.8637       0.218836         0.0000         0.7673
    1911.70560      -999.2500      -999.2500         0.9266       0.219749         0.0000         0.7591
    1911.85800      -999.2500      -999.2500         1.0764       0.224362         0.0000         0.7563
    1912.01040      -999.2500      -999.2500         1.4726       0.235181         0.0000         0.7568
    1912.16280      -999.2500      -999.2500         1.9972       0.244427         0.0000         0.7503
    1912.31520      -999.2500      -999.2500         1.6427       0.243350         0.0000         0.7813
    1912.46760      -999.2500      -999.2500         1.8986       0.240018         0.0000         0.7356
    1912.62000      -999.2500      -999.2500         1.3525       0.237487         0.0000         0.7856
    1912.77240      -999.2500      -999.2500         1.0237       0.239535         0.0000         0.8495
    1912.92480      -999.2500      -999.2500         1.3262       0.238855         0.0000         0.7969
    1913.07720      -999.2500      -999.2500         2.6428       0.238961         0.0000         0.6673
    1913.22960      -999.2500      -999.2500         4.6090       0.243058         0.0000         0.5849
    1913.38200      -999.2500      -999.2500         3.0624       0.244309         0.0000         0.6690
    1913.53440      -999.2500      -999.2500         1.4584       0.247009         0.0000         0.8240
    1913.68680      -999.2500      -999.2500         0.7626       0.249053         0.0000         0.9577
    1913.83920      -999.2500      -999.2500         0.3029       0.256077         0.0000         1.1708
    1913.99160      -999.2500      -999.2500         0.5298       0.258709         0.0000         1.0798
    1914.14400      -999.2500      -999.2500         0.5453       0.252600         0.0000         1.0406
    1914.29640      -999.2500      -999.2500         1.3356       0.238687         0.0000         0.7946
    1914.44880      -999.2500      -999.2500         1.5387       0.230409         0.0000         0.7222
    1914.60120      -999.2500      -999.2500         2.1402       0.233826         0.0000         0.6787
    1914.75360      -999.2500      -999.2500         2.4416       0.239605         0.0000         0.6858
    1914.90600      -999.2500      -999.2500         1.1224       0.236606         0.0000         0.8160
    1915.05840      -999.2500      -999.2500         1.2729       0.226045         0.0000         0.7339
    1915.21080      -999.2500      -999.2500         0.8707       0.222335         0.0000         0.7851
    1915.36320      -999.2500      -999.2500         0.7163       0.228044         0.0000         0.8535
    1915.51560      -999.2500      -999.2500         0.3170       0.235316         0.0000         0.9230
    1915.66800      -999.2500      -999.2500         1.0799       0.239015         0.0000         0.8366
