~Version Information Block
VERS .                  2.0:  CWLS LOG ASCII STANDARD - VERSION 2.0
WRAP .                   NO:  One line per depth step
~Well Information Block
#MNEM.UNIT        Data Type   Information
#---------- ----------------  -----------
STRT .M          1892.35080:  START DEPTH
STOP .M          2875.48320:  STOP DEPTH
STEP .M             0.15240:  STEP
NULL .              -999.25:  NULL VALUE
COMP .              Equinor:  COMPANY
WELL .            NO 31/5-7:  WELL
FLD  .                  Eos:  FIELD
LOC  .     Norwegian North Sea:  LOCATION
PROV .              UNKNOWN:  PROVINCE
SRVC .              Equinor:  SERVICE COMPANY
DATE .                     :  DATE
API  .            NO 31/5-7:  API NUMBER
UWI  .            NO 31/5-7:  UNIQUE WELL ID
X    .             524299.7:  X OR EAST-WEST COORDINATE
Y    .            6715849.6:  Y OR NORTH-SOUTH COORDINATE
LATI .     60° 34' 35.14" N:  LATITUDE
LONG .      3° 26' 36.13" E:  LONGITUDE
~Curve Information Block
#MNEM.UNIT         API CODE   Curve Description
#---------- ----------------  -----------------
DEPTH.M                    :  
CARB_FLAG.NONE                 :  Carbonate cement flag, manually edited, 1 = cement
COAL_FLAG.NONE                 :  1=COAL
KLOGH.MD                   :  Horizontal permeability. Boosted in Johansen Fm. (if(KLOGH>400,KLOGH*2.5,KLOGH)
PHIT .V/V                  :  IFC(COAL_FLAG>0.5,0,PHIT)
SAND_FLAG.NONE                 :  Sand flag
VSH  .UNITLESS                 :  Volume of dry VSH
~Parameter Information Block
#MNEM.UNIT            Value   Description
#---------- ----------------  -----------
ACCUMULATE.          69544.84375:  Accumulated KTIMM
PROJECT.     TROLL@be-vlinapp01:  
SET  .             STAT_CPI:  
DATUM_ELEVATION.                  MSL:  Datum_elevation
DEPTH_BOTTOM.M              6245.5:  Downhole depth
DIRECTIONAL_SET.               SURVEY:  Preferred directional survey set
DRILLED_DEPTH.M                2585:  Total Depth - Driller
DRILL_MEAS_REF.                   KB:  Drilling Measured From (Name of Drilling Elevation Reference)
ELEV_MEAS_REF.M                  31:  Elevation of Measurement Reference
ELEV_PERM_DATUM.                  MSL:  Local Permanent Datum
FAULTS_SET.                     :  Preferred faults set
LOGGED_DEPTH.M      2584.899902344:  Total Depth - Logger
MEASUREMENT_REF.                   KB:  Measurement Reference
TVD_BOTTOM.M      6243.987912547:  True Vertical Depth at well bottom
TVD_MIN_REPEAT.M                    :  TVD repeat section tolerance
XOFFSET_BOTTOM.       524405.4148394:  Amount of E/W distance from KB at TD
YOFFSET_BOTTOM.       6715847.712282:  Amount of N/S distance from KB at TD
~Other Information Block
# 
~A       DEPTH      CARB_FLAG      COAL_FLAG          KLOGH           PHIT      SAND_FLAG            VSH 
# ...
    2420.41680      -999.2500      -999.2500         0.0724       0.117586         0.0000         0.4667
    2420.56920      -999.2500      -999.2500         0.0558       0.114454         0.0000         0.4506
    2420.72160      -999.2500      -999.2500         0.0495       0.114452         0.0000         0.4051
    2420.87400      -999.2500      -999.2500         0.0737       0.119521         0.0000         0.4946
    2421.02640      -999.2500      -999.2500         0.0695       0.115245         0.0000         0.5027
    2421.17880      -999.2500      -999.2500         0.0660       0.108980         0.0000         0.4942
    2421.33120      -999.2500      -999.2500         0.0443       0.096810         0.0000         0.4859
    2421.48360      -999.2500      -999.2500         0.0420       0.097028         0.0000         0.4907
    2421.63600      -999.2500      -999.2500         0.0580       0.105661         0.0000         0.5960
    2421.78840      -999.2500      -999.2500         0.0956       0.122975         0.0000         0.5747
    2421.94080      -999.2500      -999.2500         0.2172       0.141430         0.0000         0.5627
    2422.09320      -999.2500      -999.2500         0.2178       0.142768         0.0000         0.5438
    2422.24560      -999.2500      -999.2500         0.1257       0.127745         0.0000         0.5726
    2422.39800      -999.2500      -999.2500         0.0536       0.119726         0.0000         0.6175
    2422.55040      -999.2500      -999.2500         0.0505       0.130291         0.0000         0.6246
    2422.70280      -999.2500      -999.2500         0.1574       0.151189         0.0000         0.5775
    2422.85520      -999.2500      -999.2500         0.2283       0.151397         0.0000         0.5405
    2423.00760      -999.2500      -999.2500         0.2561       0.145353         0.0000         0.5416
    2423.16000      -999.2500      -999.2500         0.1771       0.139837         0.0000         0.5242
    2423.31240      -999.2500      -999.2500         0.2093       0.141958         0.0000         0.5311
    2423.46480      -999.2500      -999.2500         0.3123       0.144030         0.0000         0.4444
    2423.61720      -999.2500      -999.2500         0.4958       0.142762         0.0000         0.3619
    2423.76960      -999.2500      -999.2500         0.6834       0.140662         0.0000         0.2693
    2423.92200      -999.2500      -999.2500         1.7474       0.151306         1.0000         0.2054
    2424.07440      -999.2500      -999.2500         9.3050       0.197518         1.0000         0.2008
    2424.22680      -999.2500      -999.2500        65.3812       0.253535         1.0000         0.1419
    2424.37920      -999.2500      -999.2500       141.4123       0.285637         1.0000         0.1735
    2424.53160      -999.2500      -999.2500       123.9966       0.279334         1.0000         0.1635
    2424.68400      -999.2500      -999.2500        98.5369       0.271357         1.0000         0.1629
    2424.83640      -999.2500      -999.2500        95.6108       0.272754         1.0000         0.1763
    2424.98880      -999.2500      -999.2500       104.1315       0.276705         1.0000         0.1820
    2425.14120      -999.2500      -999.2500       111.4965       0.275523         1.0000         0.1626
    2425.29360      -999.2500      -999.2500        85.9977       0.268153         1.0000         0.1709
    2425.44600      -999.2500      -999.2500        55.7984       0.259447         1.0000         0.2045
    2425.59840      -999.2500      -999.2500        40.5134       0.254044         1.0000         0.2351
    2425.75080      -999.2500      -999.2500        40.4630       0.255661         1.0000         0.2443
    2425.90320      -999.2500      -999.2500        40.4920       0.258152         1.0000         0.2579
    2426.05560      -999.2500      -999.2500        45.6839       0.257378         1.0000         0.2308
    2426.20800      -999.2500      -999.2500        44.6718       0.251205         1.0000         0.2010
    2426.36040      -999.2500      -999.2500        25.0631       0.235979         1.0000         0.2260
    2426.51280      -999.2500      -999.2500         7.2488       0.213265         1.0000         0.3349
    2426.66520      -999.2500      -999.2500         3.4153       0.196872         1.0000         0.3865
    2426.81760      -999.2500      -999.2500         4.2352       0.206368         1.0000         0.2983
    2426.97000      -999.2500      -999.2500        14.4656       0.235476         1.0000         0.0910
    2427.12240      -999.2500      -999.2500        64.7060       0.272658         1.0000         0.0384
    2427.27480      -999.2500      -999.2500       218.9831       0.294276         1.0000         0.1033
    2427.42720      -999.2500      -999.2500       389.0102       0.302213         1.0000         0.0740
    2427.57960      -999.2500      -999.2500       312.2310       0.294806         1.0000         0.0746
    2427.73200      -999.2500      -999.2500       224.8779       0.287604         1.0000         0.0195
    2427.88440      -999.2500      -999.2500       190.3521       0.283659         1.0000         0.0275
    2428.03680      -999.2500      -999.2500       169.7550       0.284187         1.0000         0.0289
    2428.18920      -999.2500      -999.2500       185.4640       0.285744         1.0000         0.0769
    2428.34160      -999.2500      -999.2500       185.2510       0.287816         1.0000         0.0974
    2428.49400      -999.2500      -999.2500       246.8049       0.287387         1.0000         0.0780
    2428.64640      -999.2500      -999.2500       201.2747       0.280353         1.0000         0.0777
    2428.79880      -999.2500      -999.2500       148.4742       0.270588         1.0000         0.0812
    2428.95120      -999.2500      -999.2500       106.8210       0.262907         1.0000         0.1010
    2429.10360      -999.2500      -999.2500       118.3023       0.263981         1.0000         0.0876
    2429.25600      -999.2500      -999.2500       158.6591       0.268744         1.0000         0.0585
    2429.40840      -999.2500      -999.2500       185.6758       0.270511         1.0000         0.0386
    2429.56080      -999.2500      -999.2500       178.7896       0.268312         1.0000         0.0336
    2429.71320      -999.2500      -999.2500       168.5722       0.268882         1.0000         0.0478
    2429.86560      -999.2500      -999.2500       179.6038       0.271112         1.0000         0.0482
    2430.01800      -999.2500      -999.2500       194.9122       0.271251         1.0000         0.0335
    2430.17040      -999.2500      -999.2500       171.1066       0.268034         1.0000         0.0403
    2430.32280      -999.2500      -999.2500       129.6095       0.265502         1.0000         0.0788
    2430.47520      -999.2500      -999.2500       114.4218       0.265989         1.0000         0.1050
    2430.62760      -999.2500      -999.2500       105.9660       0.265391         1.0000         0.1162
    2430.78000      -999.2500      -999.2500        75.2030       0.258564         1.0000         0.1377
    2430.93240      -999.2500      -999.2500        66.7722       0.254329         1.0000         0.1423
    2431.08480      -999.2500      -999.2500        57.4969       0.249458         1.0000         0.1437
    2431.23720      -999.2500      -999.2500        65.2842       0.250307         1.0000         0.1244
    2431.38960      -999.2500      -999.2500        60.9840       0.249394         1.0000         0.1322
    2431.54200      -999.2500      -999.2500        66.9762       0.251242         1.0000         0.1247
    2431.69440      -999.2500      -999.2500        82.2585       0.256960         1.0000         0.1175
    2431.84680      -999.2500      -999.2500        68.6098       0.255569         1.0000         0.1134
    2431.99920      -999.2500      -999.2500        49.6206       0.246398         1.0000         0.1416
