~Version Information Block
VERS .                  2.0:  CWLS LOG ASCII STANDARD - VERSION 2.0
WRAP .                   NO:  One line per depth step
~Well Information Block
#MNEM.UNIT        Data Type   Information
#---------- ----------------  -----------
STRT .M          1892.35080:  START DEPTH
STOP .M          2875.48320:  STOP DEPTH
STEP .M             0.15240:  STEP
NULL .              -999.25:  NULL VALUE
COMP .              Equinor:  COMPANY
WELL .            NO 31/5-7:  WELL
FLD  .                  Eos:  FIELD
LOC  .     Norwegian North Sea:  LOCATION
PROV .              UNKNOWN:  PROVINCE
SRVC .              Equinor:  SERVICE COMPANY
DATE .                     :  DATE
API  .            NO 31/5-7:  API NUMBER
UWI  .            NO 31/5-7:  UNIQUE WELL ID
X    .             524299.7:  X OR EAST-WEST COORDINATE
Y    .            6715849.6:  Y OR NORTH-SOUTH COORDINATE
LATI .     60° 34' 35.14" N:  LATITUDE
LONG .      3° 26' 36.13" E:  LONGITUDE
~Curve Information Block
#MNEM.UNIT         API CODE   Curve Description
#---------- ----------------  -----------------
DEPTH.M                    :  
CARB_FLAG.NONE                 :  Carbonate cement flag, manually edited, 1 = cement
COAL_FLAG.NONE                 :  1=COAL
KLOGH.MD                   :  Horizontal permeability. Boosted in Johansen Fm. (if(KLOGH>400,KLOGH*2.5,KLOGH)
PHIT .V/V                  :  IFC(COAL_FLAG>0.5,0,PHIT)
SAND_FLAG.NONE                 :  Sand flag
VSH  .UNITLESS                 :  Volume of dry VSH
~Parameter Information Block
#MNEM.UNIT            Value   Description
#---------- ----------------  -----------
ACCUMULATE.          69544.84375:  Accumulated KTIMM
PROJECT.     TROLL@be-vlinapp01:  
SET  .             STAT_CPI:  
DATUM_ELEVATION.                  MSL:  Datum_elevation
DEPTH_BOTTOM.M              6245.5:  Downhole depth
DIRECTIONAL_SET.               SURVEY:  Preferred directional survey set
DRILLED_DEPTH.M                2585:  Total Depth - Driller
DRILL_MEAS_REF.                   KB:  Drilling Measured From (Name of Drilling Elevation Reference)
ELEV_MEAS_REF.M                  31:  Elevation of Measurement Reference
ELEV_PERM_DATUM.                  MSL:  Local Permanent Datum
FAULTS_SET.                     :  Preferred faults set
LOGGED_DEPTH.M      2584.899902344:  Total Depth - Logger
MEASUREMENT_REF.                   KB:  Measurement Reference
TVD_BOTTOM.M      6243.987912547:  True Vertical Depth at well bottom
TVD_MIN_REPEAT.M                    :  TVD repeat section tolerance
XOFFSET_BOTTOM.       524405.4148394:  Amount of E/W distance from KB at TD
YOFFSET_BOTTOM.       6715847.712282:  Amount of N/S distance from KB at TD
~Other Information Block
# 
~A       DEPTH      CARB_FLAG      COAL_FLAG          KLOGH           PHIT      SAND_FLAG            VSH 
# ...
    2866.33920      -999.2500      -999.2500       204.0885       0.252582         1.0000         0.0055
    2866.49160      -999.2500      -999.2500       268.7523       0.257271         1.0000         0.0166
    2866.64400      -999.2500      -999.2500       359.6949       0.254449         1.0000         0.0749
    2866.79640      -999.2500      -999.2500       201.9579       0.248261         1.0000         0.0871
    2866.94880      -999.2500         1.0000      -999.2500       0.000000         0.0000         0.1883
    2867.10120      -999.2500         1.0000      -999.2500       0.000000         0.0000         0.3335
    2867.25360      -999.2500         1.0000      -999.2500       0.000000         0.0000         0.6267
    2867.40600      -999.2500         1.0000      -999.2500       0.000000         0.0000         0.8787
    2867.55840      -999.2500         1.0000      -999.2500       0.000000         0.0000         1.0286
    2867.71080      -999.2500         1.0000      -999.2500       0.000000         0.0000         1.0423
    2867.86320      -999.2500         1.0000      -999.2500       0.000000         0.0000         0.9751
    2868.01560      -999.2500         1.0000      -999.2500       0.000000         0.0000         0.8278
    2868.16800      -999.2500         1.0000      -999.2500       0.000000         0.0000         0.5825
    2868.32040      -999.2500         1.0000      -999.2500       0.000000         0.0000         0.3763
    2868.47280      -999.2500      -999.2500         0.0000       0.030746         0.0000         0.3295
    2868.62520      -999.2500      -999.2500         0.0000       0.051450         0.0000         0.4666
    2868.77760      -999.2500      -999.2500         0.0000       0.063650         0.0000         0.5738
    2868.93000      -999.2500      -999.2500         0.0000       0.124026         0.0000         0.6590
    2869.08240      -999.2500      -999.2500         0.0005       0.171445         0.0000         0.5839
    2869.23480      -999.2500      -999.2500         0.0118       0.193951         0.0000         0.5519
    2869.38720      -999.2500      -999.2500         0.0000       0.161364         0.0000         0.5352
    2869.53960      -999.2500      -999.2500         0.0000       0.129269         0.0000         0.5128
    2869.69200      -999.2500      -999.2500         0.0000       0.112432         0.0000         0.5454
    2869.84440      -999.2500      -999.2500         0.0000       0.095796         0.0000         0.6997
    2869.99680      -999.2500      -999.2500         0.0000       0.087655         0.0000         0.8075
    2870.14920      -999.2500      -999.2500         0.0000       0.081239         0.0000         0.8458
    2870.30160      -999.2500      -999.2500         0.0000       0.079060         0.0000         0.7515
    2870.45400      -999.2500      -999.2500         0.0000       0.077911         0.0000         0.6873
    2870.60640      -999.2500      -999.2500         0.0000       0.085437         0.0000         0.5386
    2870.75880      -999.2500      -999.2500         0.0000       0.092151         0.0000         0.4938
    2870.91120      -999.2500      -999.2500         0.0000       0.092178         0.0000         0.4842
    2871.06360      -999.2500      -999.2500         0.0000       0.082988         0.0000         0.4748
    2871.21600      -999.2500      -999.2500         0.0000       0.061497         0.0000         0.4655
    2871.36840      -999.2500      -999.2500         0.0000       0.034667         0.0000         0.4756
    2871.52080      -999.2500      -999.2500         0.0000       0.007148         0.0000         0.4935
    2871.67320      -999.2500      -999.2500         0.0000       0.005431         0.0000         0.5114
    2871.82560      -999.2500      -999.2500         0.0000       0.022778         0.0000         0.5242
    2871.97800      -999.2500      -999.2500         0.0000       0.047814         0.0000         0.5302
    2872.13040      -999.2500      -999.2500         0.0000       0.059722         0.0000         0.5363
    2872.28280      -999.2500      -999.2500         0.0000       0.065115         0.0000         0.5426
    2872.43520      -999.2500      -999.2500         0.0000       0.061945         0.0000         0.5505
    2872.58760      -999.2500      -999.2500         0.0000       0.053929         0.0000         0.5584
    2872.74000      -999.2500      -999.2500         0.0000       0.049291         0.0000         0.5663
    2872.89240      -999.2500      -999.2500         0.0000       0.050383         0.0000         0.6308
    2873.04480      -999.2500      -999.2500         0.0000       0.056174         0.0000         0.7037
    2873.19720      -999.2500      -999.2500         0.0000       0.058303         0.0000         0.7278
    2873.34960      -999.2500      -999.2500         0.0000       0.063197         0.0000         0.7542
    2873.50200      -999.2500      -999.2500         0.0000       0.075498         0.0000         0.7361
    2873.65440      -999.2500      -999.2500         0.0000       0.093521         0.0000         0.7046
    2873.80680      -999.2500      -999.2500         0.0000       0.109073         0.0000         0.6471
    2873.95920      -999.2500      -999.2500         0.0000       0.117447         0.0000         0.6094
    2874.11160      -999.2500      -999.2500         0.0000       0.105407         0.0000         0.6208
    2874.26400      -999.2500      -999.2500         0.0000       0.088067         0.0000         0.6522
    2874.41640      -999.2500      -999.2500         0.0000       0.076795         0.0000         0.6022
    2874.56880      -999.2500      -999.2500         0.0000       0.081323         0.0000         0.5423
    2874.72120      -999.2500      -999.2500         0.0000       0.087629         0.0000         0.4823
    2874.87360      -999.2500      -999.2500         0.0000       0.103599         0.0000         0.3777
    2875.02600      -999.2500      -999.2500         0.0000       0.139068         0.0000         0.2579
    2875.17840      -999.2500      -999.2500         0.0192       0.175232         0.0000         0.1381
    2875.33080      -999.2500      -999.2500         0.0631       0.193589         0.0000         0.1791
    2875.48320      -999.2500      -999.2500         0.0943       0.191314         0.0000         0.4054
