~Version Information Block
VERS .                  2.0:  CWLS LOG ASCII STANDARD - VERSION 2.0
WRAP .                   NO:  One line per depth step
~Well Information Block
#MNEM.UNIT        Data Type   Information
#---------- ----------------  -----------
STRT .M          1892.35080:  START DEPTH
STOP .M          2875.48320:  STOP DEPTH
STEP .M             0.15240:  STEP
NULL .              -999.25:  NULL VALUE
COMP .              Equinor:  COMPANY
WELL .            NO 31/5-7:  WELL
FLD  .                  Eos:  FIELD
LOC  .     Norwegian North Sea:  LOCATION
PROV .              UNKNOWN:  PROVINCE
SRVC .              Equinor:  SERVICE COMPANY
DATE .                     :  DATE
API  .            NO 31/5-7:  API NUMBER
UWI  .            NO 31/5-7:  UNIQUE WELL ID
X    .             524299.7:  X OR EAST-WEST COORDINATE
Y    .            6715849.6:  Y OR NORTH-SOUTH COORDINATE
LATI .     60° 34' 35.14" N:  LATITUDE
LONG .      3° 26' 36.13" E:  LONGITUDE
~Curve Information Block
#MNEM.UNIT         API CODE   Curve Description
#---------- ----------------  -----------------
DEPTH.M                    :  
CARB_FLAG.NONE                 :  Carbonate cement flag, manually edited, 1 = cement
COAL_FLAG.NONE                 :  1=COAL
KLOGH.MD                   :  Horizontal permeability. Boosted in Johansen Fm. (if(KLOGH>400,KLOGH*2.5,KLOGH)
PHIT .V/V                  :  IFC(COAL_FLAG>0.5,0,PHIT)
SAND_FLAG.NONE                 :  Sand flag
VSH  .UNITLESS                 :  Volume of dry VSH
~Parameter Information Block
#MNEM.UNIT            Value   Description
#---------- ----------------  -----------
ACCUMULATE.          69544.84375:  Accumulated KTIMM
PROJECT.     TROLL@be-vlinapp01:  
SET  .             STAT_CPI:  
DATUM_ELEVATION.                  MSL:  Datum_elevation
DEPTH_BOTTOM.M              6245.5:  Downhole depth
DIRECTIONAL_SET.               SURVEY:  Preferred directional survey set
DRILLED_DEPTH.M                2585:  Total Depth - Driller
DRILL_MEAS_REF.                   KB:  Drilling Measured From (Name of Drilling Elevation Reference)
ELEV_MEAS_REF.M                  31:  Elevation of Measurement Reference
ELEV_PERM_DATUM.                  MSL:  Local Permanent Datum
FAULTS_SET.                     :  Preferred faults set
LOGGED_DEPTH.M      2584.899902344:  Total Depth - Logger
MEASUREMENT_REF.                   KB:  Measurement Reference
TVD_BOTTOM.M      6243.987912547:  True Vertical Depth at well bottom
TVD_MIN_REPEAT.M                    :  TVD repeat section tolerance
XOFFSET_BOTTOM.       524405.4148394:  Amount of E/W distance from KB at TD
YOFFSET_BOTTOM.       6715847.712282:  Amount of N/S distance from KB at TD
~Other Information Block
# 
~A       DEPTH      CARB_FLAG      COAL_FLAG          KLOGH           PHIT      SAND_FLAG            VSH 
# ...
    2748.99120         0.0000      -999.2500         0.3523       0.106880         0.0000         0.4418
    2749.14360         0.0000      -999.2500         0.4398       0.107344         0.0000         0.4261
    2749.29600         0.0000      -999.2500         0.7153       0.113765         0.0000         0.4000
    2749.44840         0.0000      -999.2500         1.5083       0.127261         1.0000         0.3656
    2749.60080         0.0000      -999.2500         1.9113       0.134252         1.0000         0.3589
    2749.75320         0.0000      -999.2500         2.0576       0.136919         1.0000         0.3575
    2749.90560         0.0000      -999.2500         1.7609       0.130450         1.0000         0.3590
    2750.05800         0.0000      -999.2500         1.0001       0.125084         1.0000         0.3927
    2750.21040         0.0000      -999.2500         0.7276       0.124827         0.0000         0.4159
    2750.36280         0.0000      -999.2500         0.4974       0.126390         0.0000         0.4466
    2750.51520         0.0000      -999.2500         0.5657       0.126063         0.0000         0.4365
    2750.66760         0.0000      -999.2500         0.5376       0.122776         0.0000         0.4352
    2750.82000         0.0000      -999.2500         0.6241       0.120296         0.0000         0.4202
    2750.97240         0.0000      -999.2500         0.8008       0.121318         0.0000         0.4033
    2751.12480         0.0000      -999.2500         0.7745       0.121080         0.0000         0.4054
    2751.27720         0.0000      -999.2500         0.7899       0.120217         0.0000         0.4026
    2751.42960         0.0000      -999.2500         0.9404       0.121178         0.0000         0.3912
    2751.58200         0.0000      -999.2500         1.2492       0.124311         1.0000         0.3750
    2751.73440         0.0000      -999.2500         1.3679       0.127636         1.0000         0.3734
    2751.88680         0.0000      -999.2500         1.0755       0.129374         1.0000         0.3940
    2752.03920         0.0000      -999.2500         0.9183       0.130529         0.0000         0.4075
    2752.19160         0.0000      -999.2500         0.7574       0.128723         0.0000         0.4190
    2752.34400         0.0000      -999.2500         0.9498       0.128037         0.0000         0.4011
    2752.49640         0.0000      -999.2500         0.8054       0.124095         0.0000         0.4072
    2752.64880         0.0000      -999.2500         0.8197       0.123900         0.0000         0.4056
    2752.80120         0.0000      -999.2500         0.6835       0.124069         0.0000         0.4194
    2752.95360         0.0000      -999.2500         0.6468       0.126298         0.0000         0.4269
    2753.10600         0.0000      -999.2500         0.6461       0.125730         0.0000         0.4261
    2753.25840         0.0000      -999.2500         0.6868       0.124087         0.0000         0.4190
    2753.41080         0.0000      -999.2500         0.5691       0.119873         0.0000         0.4264
    2753.56320         0.0000      -999.2500         0.4039       0.119176         0.0000         0.4508
    2753.71560         0.0000      -999.2500         0.2757       0.121317         0.0000         0.4825
    2753.86800         0.0000      -999.2500         0.3984       0.133240         0.0000         0.4737
    2754.02040         0.0000      -999.2500         1.5459       0.156994         0.0000         0.4089
    2754.17280         0.0000      -999.2500         5.6104       0.177180         1.0000         0.3397
    2754.32520         0.0000      -999.2500        13.9086       0.188662         1.0000         0.2962
    2754.47760         0.0000      -999.2500        18.4307       0.188706         1.0000         0.2753
    2754.63000         0.0000      -999.2500        26.8061       0.193243         1.0000         0.2546
    2754.78240         0.0000      -999.2500        28.8244       0.197892         1.0000         0.2564
    2754.93480         0.0000      -999.2500         8.8688       0.174812         1.0000         0.3080
    2755.08720         0.0000      -999.2500         3.0223       0.146227         1.0000         0.3435
    2755.23960         0.0000      -999.2500         2.2913       0.136298         1.0000         0.3486
    2755.39200         0.0000      -999.2500        16.0029       0.176596         1.0000         0.2670
    2755.54440         0.0000      -999.2500        93.6640       0.218722         1.0000         0.2013
    2755.69680         0.0000      -999.2500       253.3366       0.237333         1.0000         0.1564
    2755.84920         0.0000      -999.2500       156.6954       0.226760         1.0000         0.1756
    2756.00160         0.0000      -999.2500       125.5626       0.218415         1.0000         0.1791
    2756.15400         0.0000      -999.2500       140.8733       0.223914         1.0000         0.1791
    2756.30640         0.0000      -999.2500       174.0302       0.234257         1.0000         0.1795
    2756.45880         0.0000      -999.2500       238.3984       0.238427         1.0000         0.1626
    2756.61120         0.0000      -999.2500       225.8530       0.236773         1.0000         0.1641
    2756.76360         0.0000      -999.2500       272.9845       0.233599         1.0000         0.1451
    2756.91600         0.0000      -999.2500       256.5771       0.231242         1.0000         0.1460
    2757.06840         0.0000      -999.2500       156.4705       0.221121         1.0000         0.1670
    2757.22080         0.0000      -999.2500        37.0828       0.209407         1.0000         0.2556
    2757.37320         0.0000      -999.2500        10.9353       0.201683         1.0000         0.3305
    2757.52560         0.0000      -999.2500         4.8504       0.200966         1.0000         0.2886
    2757.67800         0.0000      -999.2500         6.4509       0.204059         1.0000         0.2642
    2757.83040         0.0000      -999.2500        12.0581       0.206348         1.0000         0.2124
    2757.98280         0.0000      -999.2500        27.9370       0.210859         1.0000         0.1999
    2758.13520         0.0000      -999.2500        30.0479       0.203425         1.0000         0.2181
    2758.28760         0.0000      -999.2500        17.8125       0.190601         1.0000         0.2449
    2758.44000         0.0000      -999.2500         9.3105       0.175858         1.0000         0.2798
    2758.59240         0.0000      -999.2500         8.8531       0.172389         1.0000         0.3036
    2758.74480         0.0000      -999.2500        12.3747       0.180868         1.0000         0.2825
    2758.89720         0.0000      -999.2500        38.2788       0.199699         1.0000         0.2382
    2759.04960         0.0000      -999.2500       149.1585       0.226305         1.0000         0.1786
    2759.20200         0.0000      -999.2500       276.8800       0.246243         1.0000         0.1637
    2759.35440         0.0000      -999.2500       262.9207       0.253292         1.0000         0.1496
    2759.50680         0.0000      -999.2500       306.5114       0.259285         1.0000         0.1591
    2759.65920         0.0000      -999.2500       481.0381       0.266097         1.0000         0.1166
    2759.81160         0.0000      -999.2500       494.2454       0.266529         1.0000         0.1104
    2759.96400         0.0000      -999.2500       361.0207       0.261362         1.0000         0.1378
    2760.11640         0.0000      -999.2500       362.2667       0.262213         1.0000         0.1686
    2760.26880         0.0000      -999.2500       360.9112       0.268963         1.0000         0.1793
    2760.42120         0.0000      -999.2500       352.2507       0.274404         1.0000         0.1896
    2760.57360         0.0000      -999.2500       372.3018       0.272139         1.0000         0.1820
