~Version Information Block
VERS .                  2.0:  CWLS LOG ASCII STANDARD - VERSION 2.0
WRAP .                   NO:  One line per depth step
~Well Information Block
#MNEM.UNIT        Data Type   Information
#---------- ----------------  -----------
STRT .M          1892.35080:  START DEPTH
STOP .M          2875.48320:  STOP DEPTH
STEP .M             0.15240:  STEP
NULL .              -999.25:  NULL VALUE
COMP .              Equinor:  COMPANY
WELL .            NO 31/5-7:  WELL
FLD  .                  Eos:  FIELD
LOC  .     Norwegian North Sea:  LOCATION
PROV .              UNKNOWN:  PROVINCE
SRVC .              Equinor:  SERVICE COMPANY
DATE .                     :  DATE
API  .            NO 31/5-7:  API NUMBER
UWI  .            NO 31/5-7:  UNIQUE WELL ID
X    .             524299.7:  X OR EAST-WEST COORDINATE
Y    .            6715849.6:  Y OR NORTH-SOUTH COORDINATE
LATI .     60° 34' 35.14" N:  LATITUDE
LONG .      3° 26' 36.13" E:  LONGITUDE
~Curve Information Block
#MNEM.UNIT         API CODE   Curve Description
#---------- ----------------  -----------------
DEPTH.M                    :  
CARB_FLAG.NONE                 :  Carbonate cement flag, manually edited, 1 = cement
COAL_FLAG.NONE                 :  1=COAL
KLOGH.MD                   :  Horizontal permeability. Boosted in Johansen Fm. (if(KLOGH>400,KLOGH*2.5,KLOGH)
PHIT .V/V                  :  IFC(COAL_FLAG>0.5,0,PHIT)
SAND_FLAG.NONE                 :  Sand flag
VSH  .UNITLESS                 :  Volume of dry VSH
~Parameter Information Block
#MNEM.UNIT            Value   Description
#---------- ----------------  -----------
ACCUMULATE.          69544.84375:  Accumulated KTIMM
PROJECT.     TROLL@be-vlinapp01:  
SET  .             STAT_CPI:  
DATUM_ELEVATION.                  MSL:  Datum_elevation
DEPTH_BOTTOM.M              6245.5:  Downhole depth
DIRECTIONAL_SET.               SURVEY:  Preferred directional survey set
DRILLED_DEPTH.M                2585:  Total Depth - Driller
DRILL_MEAS_REF.                   KB:  Drilling Measured From (Name of Drilling Elevation Reference)
ELEV_MEAS_REF.M                  31:  Elevation of Measurement Reference
ELEV_PERM_DATUM.                  MSL:  Local Permanent Datum
FAULTS_SET.                     :  Preferred faults set
LOGGED_DEPTH.M      2584.899902344:  Total Depth - Logger
MEASUREMENT_REF.                   KB:  Measurement Reference
TVD_BOTTOM.M      6243.987912547:  True Vertical Depth at well bottom
TVD_MIN_REPEAT.M                    :  TVD repeat section tolerance
XOFFSET_BOTTOM.       524405.4148394:  Amount of E/W distance from KB at TD
YOFFSET_BOTTOM.       6715847.712282:  Amount of N/S distance from KB at TD
~Other Information Block
# 
~A       DEPTH      CARB_FLAG      COAL_FLAG          KLOGH           PHIT      SAND_FLAG            VSH 
# ...
    2138.78160      -999.2500      -999.2500         0.9316       0.183908         0.0000         0.5486
    2138.93400      -999.2500      -999.2500         1.9841       0.198022         0.0000         0.4954
    2139.08640      -999.2500      -999.2500         2.9834       0.207411         0.0000         0.4702
    2139.23880      -999.2500      -999.2500         3.2440       0.213129         0.0000         0.4859
    2139.39120      -999.2500      -999.2500         4.4836       0.217717         0.0000         0.4502
    2139.54360      -999.2500      -999.2500         5.5243       0.220006         0.0000         0.4234
    2139.69600      -999.2500      -999.2500         5.9078       0.220627         0.0000         0.4141
    2139.84840      -999.2500      -999.2500         3.8231       0.214382         0.0000         0.4618
    2140.00080      -999.2500      -999.2500         5.5763       0.218087         0.0000         0.4110
    2140.15320      -999.2500      -999.2500        11.9927       0.231754         1.0000         0.3419
    2140.30560      -999.2500      -999.2500        35.0197       0.255863         1.0000         0.2727
    2140.45800      -999.2500      -999.2500        58.6454       0.270827         1.0000         0.2579
    2140.61040      -999.2500      -999.2500        69.4274       0.275569         1.0000         0.2523
    2140.76280      -999.2500      -999.2500        65.7758       0.273362         1.0000         0.2503
    2140.91520      -999.2500      -999.2500        65.6108       0.271305         1.0000         0.2394
    2141.06760      -999.2500      -999.2500        67.8430       0.274751         1.0000         0.2521
    2141.22000      -999.2500      -999.2500        66.7948       0.271328         1.0000         0.2361
    2141.37240      -999.2500      -999.2500        95.1447       0.265718         1.0000         0.1384
    2141.52480      -999.2500      -999.2500       132.5238       0.268187         1.0000         0.0894
    2141.67720      -999.2500      -999.2500       194.8888       0.279836         1.0000         0.0809
    2141.82960      -999.2500      -999.2500       216.5381       0.291867         1.0000         0.1275
    2141.98200      -999.2500      -999.2500       134.1680       0.290353         1.0000         0.2095
    2142.13440      -999.2500      -999.2500        52.0373       0.276308         1.0000         0.3093
    2142.28680      -999.2500      -999.2500        24.5973       0.264065         1.0000         0.3563
    2142.43920      -999.2500      -999.2500        20.8571       0.258382         1.0000         0.3844
    2142.59160      -999.2500      -999.2500        20.6515       0.254969         1.0000         0.3675
    2142.74400      -999.2500      -999.2500        13.6952       0.242106         1.0000         0.3740
    2142.89640      -999.2500      -999.2500         6.6440       0.219427         1.0000         0.3853
    2143.04880      -999.2500      -999.2500         5.9196       0.213711         1.0000         0.3756
    2143.20120      -999.2500      -999.2500         8.6551       0.219445         1.0000         0.3268
    2143.35360      -999.2500      -999.2500        10.6425       0.227266         1.0000         0.2751
    2143.50600      -999.2500      -999.2500         8.9965       0.228526         1.0000         0.2789
    2143.65840      -999.2500      -999.2500         5.9771       0.224882         1.0000         0.3457
    2143.81080      -999.2500      -999.2500         4.6808       0.220367         0.0000         0.4480
    2143.96320      -999.2500      -999.2500         2.9566       0.211652         0.0000         0.4541
    2144.11560      -999.2500      -999.2500         2.3912       0.204542         0.0000         0.4592
    2144.26800      -999.2500      -999.2500         1.9746       0.205454         0.0000         0.4229
    2144.42040      -999.2500      -999.2500         2.0351       0.206689         0.0000         0.4433
    2144.57280      -999.2500      -999.2500         1.5284       0.201070         0.0000         0.4407
    2144.72520      -999.2500      -999.2500         0.8601       0.186292         0.0000         0.4557
    2144.87760      -999.2500      -999.2500         0.6795       0.177050         0.0000         0.4658
    2145.03000      -999.2500      -999.2500         0.6669       0.178869         0.0000         0.4786
    2145.18240      -999.2500      -999.2500         0.8501       0.187992         0.0000         0.4984
    2145.33480      -999.2500      -999.2500         1.4268       0.196898         0.0000         0.4330
    2145.48720      -999.2500      -999.2500         1.9280       0.200147         0.0000         0.4235
    2145.63960      -999.2500      -999.2500         2.6129       0.199269         0.0000         0.4099
    2145.79200      -999.2500      -999.2500         1.3989       0.193343         0.0000         0.4684
    2145.94440      -999.2500      -999.2500         1.1437       0.191266         0.0000         0.4636
    2146.09680      -999.2500      -999.2500         0.9711       0.190536         0.0000         0.4368
    2146.24920      -999.2500      -999.2500         0.8322       0.189665         0.0000         0.4415
    2146.40160      -999.2500      -999.2500         0.5567       0.185713         0.0000         0.4769
    2146.55400      -999.2500      -999.2500         0.4042       0.184271         0.0000         0.5143
    2146.70640      -999.2500      -999.2500         0.6061       0.185350         0.0000         0.4653
    2146.85880      -999.2500      -999.2500         0.6302       0.183032         0.0000         0.4234
    2147.01120      -999.2500      -999.2500         0.5618       0.178286         0.0000         0.4237
    2147.16360      -999.2500      -999.2500         0.4104       0.169897         0.0000         0.5023
    2147.31600      -999.2500      -999.2500         0.4259       0.170617         0.0000         0.5108
    2147.46840      -999.2500      -999.2500         0.5672       0.167143         0.0000         0.4847
    2147.62080      -999.2500      -999.2500         0.3524       0.159957         0.0000         0.4619
    2147.77320      -999.2500      -999.2500         0.2167       0.148334         0.0000         0.5074
    2147.92560      -999.2500      -999.2500         0.0889       0.141363         0.0000         0.5363
    2148.07800      -999.2500      -999.2500         0.1280       0.141730         0.0000         0.5197
    2148.23040      -999.2500      -999.2500         0.1275       0.147310         0.0000         0.4967
    2148.38280      -999.2500      -999.2500         0.2417       0.151132         0.0000         0.4689
    2148.53520      -999.2500      -999.2500         0.1850       0.143673         0.0000         0.3670
    2148.68760      -999.2500      -999.2500         0.2814       0.135085         0.0000         0.3038
    2148.84000      -999.2500      -999.2500         0.5090       0.139329         0.0000         0.2176
    2148.99240      -999.2500      -999.2500         3.5791       0.187572         1.0000         0.2221
    2149.14480      -999.2500      -999.2500        18.6447       0.244240         1.0000         0.2286
    2149.29720      -999.2500      -999.2500        61.4268       0.286110         1.0000         0.2711
    2149.44960      -999.2500      -999.2500        93.3879       0.296892         1.0000         0.3066
    2149.60200      -999.2500      -999.2500       102.3117       0.297348         1.0000         0.2993
    2149.75440      -999.2500      -999.2500       105.2471       0.301861         1.0000         0.3189
    2149.90680      -999.2500      -999.2500       118.7581       0.304600         1.0000         0.3112
    2150.05920      -999.2500      -999.2500       167.8849       0.308425         1.0000         0.2670
    2150.21160      -999.2500      -999.2500       143.2022       0.310469         1.0000         0.3083
    2150.36400      -999.2500      -999.2500       216.5820       0.313170         1.0000         0.2451
